[
	{
		"id": 4269744,
		"name": "Cloud County",
		"state": "KS",
		"country": "US",
		"coord": {
			"lon": -97.650322,
			"lat": 39.48333
		}
	},
	{
		"id": 4269789,
		"name": "Coffeyville",
		"state": "KS",
		"country": "US",
		"coord": {
			"lon": -95.616371,
			"lat": 37.0373
		}
	},
	{
		"id": 4269802,
		"name": "Coldwater",
		"state": "KS",
		"country": "US",
		"coord": {
			"lon": -99.326782,
			"lat": 37.268909
		}
	},
	{
		"id": 4269841,
		"name": "Columbus",
		"state": "KS",
		"country": "US",
		"coord": {
			"lon": -94.844116,
			"lat": 37.169231
		}
	},
	{
		"id": 4269847,
		"name": "Colwich",
		"state": "KS",
		"country": "US",
		"coord": {
			"lon": -97.536438,
			"lat": 37.779179
		}
	},
	{
		"id": 4269872,
		"name": "Concordia",
		"state": "KS",
		"country": "US",
		"coord": {
			"lon": -97.662537,
			"lat": 39.570839
		}
	},
	{
		"id": 4269887,
		"name": "Conway Springs",
		"state": "KS",
		"country": "US",
		"coord": {
			"lon": -97.642273,
			"lat": 37.390301
		}
	},
	{
		"id": 4269896,
		"name": "Cookville",
		"state": "KS",
		"country": "US",
		"coord": {
			"lon": -95.592201,
			"lat": 37.82032
		}
	},
	{
		"id": 4269988,
		"name": "Cottonwood Falls",
		"state": "KS",
		"country": "US",
		"coord": {
			"lon": -96.542778,
			"lat": 38.372238
		}
	},
	{
		"id": 4270001,
		"name": "Council Grove",
		"state": "KS",
		"country": "US",
		"coord": {
			"lon": -96.491951,
			"lat": 38.661121
		}
	},
	{
		"id": 4270053,
		"name": "Cowley County",
		"state": "KS",
		"country": "US",
		"coord": {
			"lon": -96.833641,
			"lat": 37.23336
		}
	},
	{
		"id": 4270088,
		"name": "Crawford County",
		"state": "KS",
		"country": "US",
		"coord": {
			"lon": -94.850243,
			"lat": 37.51672
		}
	},
	{
		"id": 4270124,
		"name": "Crisfield",
		"state": "KS",
		"country": "US",
		"coord": {
			"lon": -98.311462,
			"lat": 37.172249
		}
	},
	{
		"id": 4270269,
		"name": "De Soto",
		"state": "KS",
		"country": "US",
		"coord": {
			"lon": -94.968582,
			"lat": 38.979172
		}
	},
	{
		"id": 4270356,
		"name": "Derby",
		"state": "KS",
		"country": "US",
		"coord": {
			"lon": -97.268929,
			"lat": 37.54557
		}
	},
	{
		"id": 4270436,
		"name": "Doniphan County",
		"state": "KS",
		"country": "US",
		"coord": {
			"lon": -95.11692,
			"lat": 39.799999
		}
	},
	{
		"id": 4270450,
		"name": "Douglas County",
		"state": "KS",
		"country": "US",
		"coord": {
			"lon": -95.233582,
			"lat": 38.866669
		}
	},
	{
		"id": 4270460,
		"name": "Douglass",
		"state": "KS",
		"country": "US",
		"coord": {
			"lon": -97.01281,
			"lat": 37.519459
		}
	},
	{
		"id": 4270472,
		"name": "Downs",
		"state": "KS",
		"country": "US",
		"coord": {
			"lon": -98.542007,
			"lat": 39.498619
		}
	},
	{
		"id": 4270819,
		"name": "Edgerton",
		"state": "KS",
		"country": "US",
		"coord": {
			"lon": -95.008018,
			"lat": 38.764729
		}
	},
	{
		"id": 4270847,
		"name": "Edwardsville",
		"state": "KS",
		"country": "US",
		"coord": {
			"lon": -94.819679,
			"lat": 39.061119
		}
	},
	{
		"id": 4270863,
		"name": "El Dorado",
		"state": "KS",
		"country": "US",
		"coord": {
			"lon": -96.862251,
			"lat": 37.817242
		}
	},
	{
		"id": 4270929,
		"name": "Ellinwood",
		"state": "KS",
		"country": "US",
		"coord": {
			"lon": -98.58091,
			"lat": 38.355572
		}
	},
	{
		"id": 4270936,
		"name": "Ellis",
		"state": "KS",
		"country": "US",
		"coord": {
			"lon": -99.560669,
			"lat": 38.938068
		}
	},
	{
		"id": 4270937,
		"name": "Ellis County",
		"state": "KS",
		"country": "US",
		"coord": {
			"lon": -99.317047,
			"lat": 38.916679
		}
	},
	{
		"id": 4270945,
		"name": "Ellsworth",
		"state": "KS",
		"country": "US",
		"coord": {
			"lon": -98.228111,
			"lat": 38.73056
		}
	},
	{
		"id": 4270946,
		"name": "Ellsworth County",
		"state": "KS",
		"country": "US",
		"coord": {
			"lon": -98.200333,
			"lat": 38.700008
		}
	},
	{
		"id": 4270994,
		"name": "Elm Mills",
		"state": "KS",
		"country": "US",
		"coord": {
			"lon": -98.687027,
			"lat": 37.43391
		}
	},
	{
		"id": 4271035,
		"name": "Elwood",
		"state": "KS",
		"country": "US",
		"coord": {
			"lon": -94.872467,
			"lat": 39.75555
		}
	},
	{
		"id": 4271086,
		"name": "Emporia",
		"state": "KS",
		"country": "US",
		"coord": {
			"lon": -96.181664,
			"lat": 38.4039
		}
	},
	{
		"id": 4271131,
		"name": "Erie",
		"state": "KS",
		"country": "US",
		"coord": {
			"lon": -95.243309,
			"lat": 37.568111
		}
	},
	{
		"id": 4271159,
		"name": "Eureka",
		"state": "KS",
		"country": "US",
		"coord": {
			"lon": -96.289169,
			"lat": 37.823921
		}
	},
	{
		"id": 4271170,
		"name": "Eureka Lake",
		"state": "KS",
		"country": "US",
		"coord": {
			"lon": -96.639168,
			"lat": 39.151939
		}
	},
	{
		"id": 4271196,
		"name": "Eudora",
		"state": "KS",
		"country": "US",
		"coord": {
			"lon": -95.098579,
			"lat": 38.94334
		}
	},
	{
		"id": 4271358,
		"name": "Fairway",
		"state": "KS",
		"country": "US",
		"coord": {
			"lon": -94.631897,
			"lat": 39.022228
		}
	},
	{
		"id": 4271650,
		"name": "Ford County",
		"state": "KS",
		"country": "US",
		"coord": {
			"lon": -99.900414,
			"lat": 37.70002
		}
	},
	{
		"id": 4271690,
		"name": "Fort Scott",
		"state": "KS",
		"country": "US",
		"coord": {
			"lon": -94.708298,
			"lat": 37.83976
		}
	},
	{
		"id": 4271796,
		"name": "Fredonia",
		"state": "KS",
		"country": "US",
		"coord": {
			"lon": -95.826653,
			"lat": 37.533939
		}
	},
	{
		"id": 4271901,
		"name": "Galena",
		"state": "KS",
		"country": "US",
		"coord": {
			"lon": -94.639671,
			"lat": 37.075901
		}
	},
	{
		"id": 4271918,
		"name": "Frontenac",
		"state": "KS",
		"country": "US",
		"coord": {
			"lon": -94.689133,
			"lat": 37.455601
		}
	},
	{
		"id": 4271935,
		"name": "Gardner",
		"state": "KS",
		"country": "US",
		"coord": {
			"lon": -94.927193,
			"lat": 38.810841
		}
	},
	{
		"id": 4271974,
		"name": "Garnett",
		"state": "KS",
		"country": "US",
		"coord": {
			"lon": -95.24192,
			"lat": 38.280579
		}
	},
	{
		"id": 4272003,
		"name": "Geary County",
		"state": "KS",
		"country": "US",
		"coord": {
			"lon": -96.666946,
			"lat": 38.997219
		}
	},
	{
		"id": 4272061,
		"name": "Girard",
		"state": "KS",
		"country": "US",
		"coord": {
			"lon": -94.83802,
			"lat": 37.511162
		}
	},
	{
		"id": 4272133,
		"name": "Goddard",
		"state": "KS",
		"country": "US",
		"coord": {
			"lon": -97.575333,
			"lat": 37.65974
		}
	},
	{
		"id": 4272234,
		"name": "Graham County",
		"state": "KS",
		"country": "US",
		"coord": {
			"lon": -99.883728,
			"lat": 39.35001
		}
	},
	{
		"id": 4272273,
		"name": "Grandview Plaza",
		"state": "KS",
		"country": "US",
		"coord": {
			"lon": -96.789169,
			"lat": 39.02916
		}
	},
	{
		"id": 4272340,
		"name": "Great Bend",
		"state": "KS",
		"country": "US",
		"coord": {
			"lon": -98.764809,
			"lat": 38.36446
		}
	},
	{
		"id": 4272411,
		"name": "Greensburg",
		"state": "KS",
		"country": "US",
		"coord": {
			"lon": -99.29261,
			"lat": 37.602798
		}
	},
	{
		"id": 4272558,
		"name": "Halstead",
		"state": "KS",
		"country": "US",
		"coord": {
			"lon": -97.508652,
			"lat": 38.0014
		}
	},
	{
		"id": 4272660,
		"name": "Harper",
		"state": "KS",
		"country": "US",
		"coord": {
			"lon": -98.025887,
			"lat": 37.28669
		}
	},
	{
		"id": 4272662,
		"name": "Harper County",
		"state": "KS",
		"country": "US",
		"coord": {
			"lon": -98.083672,
			"lat": 37.20002
		}
	},
	{
		"id": 4272705,
		"name": "Harvey County",
		"state": "KS",
		"country": "US",
		"coord": {
			"lon": -97.433647,
			"lat": 38.050011
		}
	},
	{
		"id": 4272727,
		"name": "Haven",
		"state": "KS",
		"country": "US",
		"coord": {
			"lon": -97.782829,
			"lat": 37.898899
		}
	},
	{
		"id": 4272782,
		"name": "Hays",
		"state": "KS",
		"country": "US",
		"coord": {
			"lon": -99.326767,
			"lat": 38.879181
		}
	},
	{
		"id": 4272788,
		"name": "Haysville",
		"state": "KS",
		"country": "US",
		"coord": {
			"lon": -97.352272,
			"lat": 37.564461
		}
	},
	{
		"id": 4272840,
		"name": "Herington",
		"state": "KS",
		"country": "US",
		"coord": {
			"lon": -96.942513,
			"lat": 38.67112
		}
	},
	{
		"id": 4272861,
		"name": "Hesston",
		"state": "KS",
		"country": "US",
		"coord": {
			"lon": -97.431427,
			"lat": 38.13834
		}
	},
	{
		"id": 4272873,
		"name": "Hiawatha",
		"state": "KS",
		"country": "US",
		"coord": {
			"lon": -95.53582,
			"lat": 39.852501
		}
	},
	{
		"id": 4272914,
		"name": "Highland",
		"state": "KS",
		"country": "US",
		"coord": {
			"lon": -95.269699,
			"lat": 39.859718
		}
	},
	{
		"id": 4272980,
		"name": "Hill City",
		"state": "KS",
		"country": "US",
		"coord": {
			"lon": -99.842056,
			"lat": 39.364731
		}
	},
	{
		"id": 4273003,
		"name": "Hillsboro",
		"state": "KS",
		"country": "US",
		"coord": {
			"lon": -97.204468,
			"lat": 38.351959
		}
	},
	{
		"id": 4273066,
		"name": "Hoisington",
		"state": "KS",
		"country": "US",
		"coord": {
			"lon": -98.778137,
			"lat": 38.51807
		}
	},
	{
		"id": 4273096,
		"name": "Holton",
		"state": "KS",
		"country": "US",
		"coord": {
			"lon": -95.736366,
			"lat": 39.465271
		}
	},
	{
		"id": 4273134,
		"name": "Homer",
		"state": "KS",
		"country": "US",
		"coord": {
			"lon": -98.797577,
			"lat": 38.869461
		}
	},
	{
		"id": 4273211,
		"name": "Horton",
		"state": "KS",
		"country": "US",
		"coord": {
			"lon": -95.526367,
			"lat": 39.660561
		}
	},
	{
		"id": 4273226,
		"name": "Howard",
		"state": "KS",
		"country": "US",
		"coord": {
			"lon": -96.263611,
			"lat": 37.47031
		}
	},
	{
		"id": 4273255,
		"name": "Humboldt",
		"state": "KS",
		"country": "US",
		"coord": {
			"lon": -95.436928,
			"lat": 37.8106
		}
	},
	{
		"id": 4273299,
		"name": "Hutchinson",
		"state": "KS",
		"country": "US",
		"coord": {
			"lon": -97.929771,
			"lat": 38.060841
		}
	},
	{
		"id": 4273359,
		"name": "Independence",
		"state": "KS",
		"country": "US",
		"coord": {
			"lon": -95.708313,
			"lat": 37.224239
		}
	},
	{
		"id": 4273430,
		"name": "Inman",
		"state": "KS",
		"country": "US",
		"coord": {
			"lon": -97.773376,
			"lat": 38.231949
		}
	},
	{
		"id": 4273441,
		"name": "Iola",
		"state": "KS",
		"country": "US",
		"coord": {
			"lon": -95.399979,
			"lat": 37.92448
		}
	},
	{
		"id": 4273497,
		"name": "Iuka",
		"state": "KS",
		"country": "US",
		"coord": {
			"lon": -98.735092,
			"lat": 37.729179
		}
	},
	{
		"id": 4273616,
		"name": "Jetmore",
		"state": "KS",
		"country": "US",
		"coord": {
			"lon": -99.893463,
			"lat": 38.084461
		}
	},
	{
		"id": 4273638,
		"name": "Johnson County",
		"state": "KS",
		"country": "US",
		"coord": {
			"lon": -94.866913,
			"lat": 38.866669
		}
	},
	{
		"id": 4273680,
		"name": "Junction City",
		"state": "KS",
		"country": "US",
		"coord": {
			"lon": -96.831398,
			"lat": 39.02861
		}
	},
	{
		"id": 4273837,
		"name": "Kansas City",
		"state": "KS",
		"country": "US",
		"coord": {
			"lon": -94.627457,
			"lat": 39.11417
		}
	},
	{
		"id": 4273857,
		"name": "Kansas",
		"state": "KS",
		"country": "US",
		"coord": {
			"lon": -98.500633,
			"lat": 38.50029
		}
	},
	{
		"id": 4273881,
		"name": "Kechi",
		"state": "KS",
		"country": "US",
		"coord": {
			"lon": -97.279488,
			"lat": 37.795849
		}
	},
	{
		"id": 4273978,
		"name": "Kingman",
		"state": "KS",
		"country": "US",
		"coord": {
			"lon": -98.11367,
			"lat": 37.645851
		}
	},
	{
		"id": 4273993,
		"name": "Kinsley",
		"state": "KS",
		"country": "US",
		"coord": {
			"lon": -99.409843,
			"lat": 37.923069
		}
	},
	{
		"id": 4273999,
		"name": "Kiowa",
		"state": "KS",
		"country": "US",
		"coord": {
			"lon": -98.485352,
			"lat": 37.01725
		}
	},
	{
		"id": 4274067,
		"name": "La Crosse",
		"state": "KS",
		"country": "US",
		"coord": {
			"lon": -99.308723,
			"lat": 38.531399
		}
	},
	{
		"id": 4274070,
		"name": "La Cygne",
		"state": "KS",
		"country": "US",
		"coord": {
			"lon": -94.761353,
			"lat": 38.350021
		}
	},
	{
		"id": 4274224,
		"name": "Langdon",
		"state": "KS",
		"country": "US",
		"coord": {
			"lon": -94.705513,
			"lat": 37.353111
		}
	},
	{
		"id": 4274236,
		"name": "Lansing",
		"state": "KS",
		"country": "US",
		"coord": {
			"lon": -94.900238,
			"lat": 39.248611
		}
	},
	{
		"id": 4274249,
		"name": "Larned",
		"state": "KS",
		"country": "US",
		"coord": {
			"lon": -99.098709,
			"lat": 38.180569
		}
	},
	{
		"id": 4274264,
		"name": "Latham",
		"state": "KS",
		"country": "US",
		"coord": {
			"lon": -96.641968,
			"lat": 37.536129
		}
	},
	{
		"id": 4274277,
		"name": "Lawrence",
		"state": "KS",
		"country": "US",
		"coord": {
			"lon": -95.235252,
			"lat": 38.971668
		}
	},
	{
		"id": 4274305,
		"name": "Leavenworth",
		"state": "KS",
		"country": "US",
		"coord": {
			"lon": -94.922462,
			"lat": 39.311111
		}
	},
	{
		"id": 4274307,
		"name": "Leavenworth County",
		"state": "KS",
		"country": "US",
		"coord": {
			"lon": -95.033577,
			"lat": 39.23333
		}
	},
	{
		"id": 4274317,
		"name": "Leawood",
		"state": "KS",
		"country": "US",
		"coord": {
			"lon": -94.616898,
			"lat": 38.966671
		}
	},
	{
		"id": 4274356,
		"name": "Lenexa",
		"state": "KS",
		"country": "US",
		"coord": {
			"lon": -94.733566,
			"lat": 38.953621
		}
	},
	{
		"id": 4274450,
		"name": "Lincoln",
		"state": "KS",
		"country": "US",
		"coord": {
			"lon": -98.144768,
			"lat": 39.04084
		}
	},
	{
		"id": 4274532,
		"name": "Lindsborg",
		"state": "KS",
		"country": "US",
		"coord": {
			"lon": -97.674477,
			"lat": 38.57362
		}
	},
	{
		"id": 4274735,
		"name": "Lone Oak",
		"state": "KS",
		"country": "US",
		"coord": {
			"lon": -94.741913,
			"lat": 37.436989
		}
	},
	{
		"id": 4274828,
		"name": "Louisburg",
		"state": "KS",
		"country": "US",
		"coord": {
			"lon": -94.680794,
			"lat": 38.619461
		}
	},
	{
		"id": 4274906,
		"name": "Lyndon",
		"state": "KS",
		"country": "US",
		"coord": {
			"lon": -95.684433,
			"lat": 38.610008
		}
	},
	{
		"id": 4274916,
		"name": "Lyon County",
		"state": "KS",
		"country": "US",
		"coord": {
			"lon": -96.150269,
			"lat": 38.450008
		}
	},
	{
		"id": 4274927,
		"name": "Lyons",
		"state": "KS",
		"country": "US",
		"coord": {
			"lon": -98.201729,
			"lat": 38.345009
		}
	},
	{
		"id": 4274980,
		"name": "Maize",
		"state": "KS",
		"country": "US",
		"coord": {
			"lon": -97.46727,
			"lat": 37.779179
		}
	},
	{
		"id": 4274994,
		"name": "Manhattan",
		"state": "KS",
		"country": "US",
		"coord": {
			"lon": -96.571671,
			"lat": 39.183609
		}
	},
	{
		"id": 4275004,
		"name": "Mankato",
		"state": "KS",
		"country": "US",
		"coord": {
			"lon": -98.210052,
			"lat": 39.787231
		}
	},
	{
		"id": 4275070,
		"name": "Marion",
		"state": "KS",
		"country": "US",
		"coord": {
			"lon": -97.017242,
			"lat": 38.348351
		}
	},
	{
		"id": 4275144,
		"name": "Marysville",
		"state": "KS",
		"country": "US",
		"coord": {
			"lon": -96.64724,
			"lat": 39.84111
		}
	},
	{
		"id": 4275261,
		"name": "McPherson",
		"state": "KS",
		"country": "US",
		"coord": {
			"lon": -97.664207,
			"lat": 38.370838
		}
	},
	{
		"id": 4275266,
		"name": "McPherson County",
		"state": "KS",
		"country": "US",
		"coord": {
			"lon": -97.666992,
			"lat": 38.400009
		}
	},
	{
		"id": 4275315,
		"name": "Medicine Lodge",
		"state": "KS",
		"country": "US",
		"coord": {
			"lon": -98.58036,
			"lat": 37.281132
		}
	},
	{
		"id": 4275393,
		"name": "Merriam",
		"state": "KS",
		"country": "US",
		"coord": {
			"lon": -94.693573,
			"lat": 39.023621
		}
	},
	{
		"id": 4275480,
		"name": "Midland",
		"state": "KS",
		"country": "US",
		"coord": {
			"lon": -95.242188,
			"lat": 39.028332
		}
	},
	{
		"id": 4275586,
		"name": "Minneapolis",
		"state": "KS",
		"country": "US",
		"coord": {
			"lon": -97.706703,
			"lat": 39.121941
		}
	},
	{
		"id": 4275600,
		"name": "Mission",
		"state": "KS",
		"country": "US",
		"coord": {
			"lon": -94.655792,
			"lat": 39.027779
		}
	},
	{
		"id": 4275614,
		"name": "Mission Hills",
		"state": "KS",
		"country": "US",
		"coord": {
			"lon": -94.616898,
			"lat": 39.01778
		}
	},
	{
		"id": 4275684,
		"name": "Montgomery County",
		"state": "KS",
		"country": "US",
		"coord": {
			"lon": -95.733589,
			"lat": 37.200069
		}
	},
	{
		"id": 4275718,
		"name": "Morehead",
		"state": "KS",
		"country": "US",
		"coord": {
			"lon": -95.507759,
			"lat": 37.384232
		}
	},
	{
		"id": 4275755,
		"name": "Morse",
		"state": "KS",
		"country": "US",
		"coord": {
			"lon": -94.723846,
			"lat": 38.850288
		}
	},
	{
		"id": 4275784,
		"name": "Mound City",
		"state": "KS",
		"country": "US",
		"coord": {
			"lon": -94.813568,
			"lat": 38.142811
		}
	},
	{
		"id": 4275803,
		"name": "Moundridge",
		"state": "KS",
		"country": "US",
		"coord": {
			"lon": -97.519211,
			"lat": 38.20306
		}
	},
	{
		"id": 4276017,
		"name": "Mulvane",
		"state": "KS",
		"country": "US",
		"coord": {
			"lon": -97.243927,
			"lat": 37.474461
		}
	},
	{
		"id": 4276128,
		"name": "Neodesha",
		"state": "KS",
		"country": "US",
		"coord": {
			"lon": -95.68026,
			"lat": 37.418388
		}
	},
	{
		"id": 4276136,
		"name": "Neosho County",
		"state": "KS",
		"country": "US",
		"coord": {
			"lon": -95.283592,
			"lat": 37.566719
		}
	},
	{
		"id": 4276166,
		"name": "Ness City",
		"state": "KS",
		"country": "US",
		"coord": {
			"lon": -99.906509,
			"lat": 38.452789
		}
	},
	{
		"id": 4276248,
		"name": "Newton",
		"state": "KS",
		"country": "US",
		"coord": {
			"lon": -97.345039,
			"lat": 38.04668
		}
	},
	{
		"id": 4276265,
		"name": "Nickerson",
		"state": "KS",
		"country": "US",
		"coord": {
			"lon": -98.083672,
			"lat": 38.147228
		}
	},
	{
		"id": 4276386,
		"name": "North Newton",
		"state": "KS",
		"country": "US",
		"coord": {
			"lon": -97.345589,
			"lat": 38.072231
		}
	},
	{
		"id": 4276452,
		"name": "Norton",
		"state": "KS",
		"country": "US",
		"coord": {
			"lon": -99.89151,
			"lat": 39.833889
		}
	},
	{
		"id": 4276543,
		"name": "Oakland",
		"state": "KS",
		"country": "US",
		"coord": {
			"lon": -95.636368,
			"lat": 39.066669
		}
	},
	{
		"id": 4276568,
		"name": "Obeeville",
		"state": "KS",
		"country": "US",
		"coord": {
			"lon": -97.848938,
			"lat": 38.05751
		}
	},
	{
		"id": 4276588,
		"name": "Ogden",
		"state": "KS",
		"country": "US",
		"coord": {
			"lon": -96.706123,
			"lat": 39.111111
		}
	},
	{
		"id": 4276614,
		"name": "Olathe",
		"state": "KS",
		"country": "US",
		"coord": {
			"lon": -94.81913,
			"lat": 38.881401
		}
	},
	{
		"id": 4276747,
		"name": "Osage City",
		"state": "KS",
		"country": "US",
		"coord": {
			"lon": -95.825821,
			"lat": 38.6339
		}
	},
	{
		"id": 4276772,
		"name": "Osawatomie",
		"state": "KS",
		"country": "US",
		"coord": {
			"lon": -94.950523,
			"lat": 38.497238
		}
	},
	{
		"id": 4276781,
		"name": "Osborne",
		"state": "KS",
		"country": "US",
		"coord": {
			"lon": -98.694794,
			"lat": 39.4389
		}
	},
	{
		"id": 4276786,
		"name": "Osborne County",
		"state": "KS",
		"country": "US",
		"coord": {
			"lon": -98.783691,
			"lat": 39.35001
		}
	},
	{
		"id": 4276792,
		"name": "Oskaloosa",
		"state": "KS",
		"country": "US",
		"coord": {
			"lon": -95.312752,
			"lat": 39.215279
		}
	},
	{
		"id": 4276800,
		"name": "Oswego",
		"state": "KS",
		"country": "US",
		"coord": {
			"lon": -95.109962,
			"lat": 37.167568
		}
	},
	{
		"id": 4276816,
		"name": "Ottawa",
		"state": "KS",
		"country": "US",
		"coord": {
			"lon": -95.267754,
			"lat": 38.61557
		}
	},
	{
		"id": 4276871,
		"name": "Overbrook",
		"state": "KS",
		"country": "US",
		"coord": {
			"lon": -95.557198,
			"lat": 38.78056
		}
	},
	{
		"id": 4276873,
		"name": "Overland Park",
		"state": "KS",
		"country": "US",
		"coord": {
			"lon": -94.670792,
			"lat": 38.982231
		}
	},
	{
		"id": 4276893,
		"name": "Oxford",
		"state": "KS",
		"country": "US",
		"coord": {
			"lon": -97.16893,
			"lat": 37.274189
		}
	},
	{
		"id": 4276956,
		"name": "Paola",
		"state": "KS",
		"country": "US",
		"coord": {
			"lon": -94.879128,
			"lat": 38.572239
		}
	},
	{
		"id": 4276974,
		"name": "Park City",
		"state": "KS",
		"country": "US",
		"coord": {
			"lon": -97.318382,
			"lat": 37.800011
		}
	},
	{
		"id": 4277011,
		"name": "Parsons",
		"state": "KS",
		"country": "US",
		"coord": {
			"lon": -95.261078,
			"lat": 37.34034
		}
	},
	{
		"id": 4277071,
		"name": "Paxico",
		"state": "KS",
		"country": "US",
		"coord": {
			"lon": -96.166382,
			"lat": 39.069439
		}
	},
	{
		"id": 4277079,
		"name": "Peabody",
		"state": "KS",
		"country": "US",
		"coord": {
			"lon": -97.106697,
			"lat": 38.16946
		}
	},
	{
		"id": 4277173,
		"name": "Phillips County",
		"state": "KS",
		"country": "US",
		"coord": {
			"lon": -99.35038,
			"lat": 39.800011
		}
	},
	{
		"id": 4277177,
		"name": "Phillipsburg",
		"state": "KS",
		"country": "US",
		"coord": {
			"lon": -99.32399,
			"lat": 39.756119
		}
	},
	{
		"id": 4277241,
		"name": "Pittsburg",
		"state": "KS",
		"country": "US",
		"coord": {
			"lon": -94.704964,
			"lat": 37.410881
		}
	},
	{
		"id": 4277260,
		"name": "Plainville",
		"state": "KS",
		"country": "US",
		"coord": {
			"lon": -99.298157,
			"lat": 39.23473
		}
	},
	{
		"id": 4277481,
		"name": "Pleasanton",
		"state": "KS",
		"country": "US",
		"coord": {
			"lon": -94.711349,
			"lat": 38.177811
		}
	},
	{
		"id": 4277718,
		"name": "Prairie Village",
		"state": "KS",
		"country": "US",
		"coord": {
			"lon": -94.633568,
			"lat": 38.991669
		}
	},
	{
		"id": 4277733,
		"name": "Pratt County",
		"state": "KS",
		"country": "US",
		"coord": {
			"lon": -98.733704,
			"lat": 37.650021
		}
	},
	{
		"id": 4277752,
		"name": "Pratt",
		"state": "KS",
		"country": "US",
		"coord": {
			"lon": -98.737587,
			"lat": 37.643909
		}
	},
	{
		"id": 4277773,
		"name": "Prospect",
		"state": "KS",
		"country": "US",
		"coord": {
			"lon": -97.446991,
			"lat": 37.63446
		}
	},
	{
		"id": 4277972,
		"name": "Reno County",
		"state": "KS",
		"country": "US",
		"coord": {
			"lon": -98.083672,
			"lat": 37.950008
		}
	},
	{
		"id": 4278061,
		"name": "Riley County",
		"state": "KS",
		"country": "US",
		"coord": {
			"lon": -96.700287,
			"lat": 39.333328
		}
	},
	{
		"id": 4278272,
		"name": "Roeland Park",
		"state": "KS",
		"country": "US",
		"coord": {
			"lon": -94.632179,
			"lat": 39.03751
		}
	},
	{
		"id": 4278301,
		"name": "Ronald",
		"state": "KS",
		"country": "US",
		"coord": {
			"lon": -94.804413,
			"lat": 37.79171
		}
	},
	{
		"id": 4278340,
		"name": "Rose Hill",
		"state": "KS",
		"country": "US",
		"coord": {
			"lon": -97.13504,
			"lat": 37.55835
		}
	},
	{
		"id": 4278393,
		"name": "Rossville",
		"state": "KS",
		"country": "US",
		"coord": {
			"lon": -95.95166,
			"lat": 39.136108
		}
	},
	{
		"id": 4278471,
		"name": "Russell",
		"state": "KS",
		"country": "US",
		"coord": {
			"lon": -98.85981,
			"lat": 38.89529
		}
	},
	{
		"id": 4278472,
		"name": "Russell County",
		"state": "KS",
		"country": "US",
		"coord": {
			"lon": -98.767021,
			"lat": 38.916679
		}
	},
	{
		"id": 4278489,
		"name": "Sabetha",
		"state": "KS",
		"country": "US",
		"coord": {
			"lon": -95.800819,
			"lat": 39.902222
		}
	},
	{
		"id": 4278621,
		"name": "Saint John",
		"state": "KS",
		"country": "US",
		"coord": {
			"lon": -98.760094,
			"lat": 38.002239
		}
	},
	{
		"id": 4278741,
		"name": "Saint Marys",
		"state": "KS",
		"country": "US",
		"coord": {
			"lon": -96.071098,
			"lat": 39.19416
		}
	},
	{
		"id": 4278742,
		"name": "Saint Marys",
		"state": "KS",
		"country": "US",
		"coord": {
			"lon": -97.640053,
			"lat": 37.70668
		}
	},
	{
		"id": 4278890,
		"name": "Salina",
		"state": "KS",
		"country": "US",
		"coord": {
			"lon": -97.61142,
			"lat": 38.840279
		}
	},
	{
		"id": 4278895,
		"name": "Saline County",
		"state": "KS",
		"country": "US",
		"coord": {
			"lon": -97.666977,
			"lat": 38.78334
		}
	},
	{
		"id": 4279149,
		"name": "Sedan",
		"state": "KS",
		"country": "US",
		"coord": {
			"lon": -96.186943,
			"lat": 37.12672
		}
	},
	{
		"id": 4279154,
		"name": "Sedgwick",
		"state": "KS",
		"country": "US",
		"coord": {
			"lon": -97.422539,
			"lat": 37.916679
		}
	},
	{
		"id": 4279155,
		"name": "Sedgwick County",
		"state": "KS",
		"country": "US",
		"coord": {
			"lon": -97.450317,
			"lat": 37.716679
		}
	},
	{
		"id": 4279170,
		"name": "Seneca",
		"state": "KS",
		"country": "US",
		"coord": {
			"lon": -96.064171,
			"lat": 39.83416
		}
	},
	{
		"id": 4279247,
		"name": "Shawnee",
		"state": "KS",
		"country": "US",
		"coord": {
			"lon": -94.720238,
			"lat": 39.041672
		}
	},
	{
		"id": 4279253,
		"name": "Shawnee County",
		"state": "KS",
		"country": "US",
		"coord": {
			"lon": -95.76693,
			"lat": 39.049999
		}
	},
	{
		"id": 4279397,
		"name": "Silver Lake",
		"state": "KS",
		"country": "US",
		"coord": {
			"lon": -95.858597,
			"lat": 39.104172
		}
	},
	{
		"id": 4279474,
		"name": "Smith Center",
		"state": "KS",
		"country": "US",
		"coord": {
			"lon": -98.785072,
			"lat": 39.779179
		}
	},
	{
		"id": 4279540,
		"name": "Solomon",
		"state": "KS",
		"country": "US",
		"coord": {
			"lon": -97.37114,
			"lat": 38.919441
		}
	},
	{
		"id": 4279645,
		"name": "South Hutchinson",
		"state": "KS",
		"country": "US",
		"coord": {
			"lon": -97.940331,
			"lat": 38.028069
		}
	},
	{
		"id": 4279847,
		"name": "Spring Hill",
		"state": "KS",
		"country": "US",
		"coord": {
			"lon": -94.825523,
			"lat": 38.743061
		}
	},
	{
		"id": 4279901,
		"name": "Stafford",
		"state": "KS",
		"country": "US",
		"coord": {
			"lon": -98.600639,
			"lat": 37.962238
		}
	},
	{
		"id": 4279983,
		"name": "Sterling",
		"state": "KS",
		"country": "US",
		"coord": {
			"lon": -98.207008,
			"lat": 38.210011
		}
	},
	{
		"id": 4280143,
		"name": "Sumner County",
		"state": "KS",
		"country": "US",
		"coord": {
			"lon": -97.483658,
			"lat": 37.23336
		}
	},
	{
		"id": 4280502,
		"name": "Tonganoxie",
		"state": "KS",
		"country": "US",
		"coord": {
			"lon": -95.087753,
			"lat": 39.109718
		}
	},
	{
		"id": 4280531,
		"name": "Towanda",
		"state": "KS",
		"country": "US",
		"coord": {
			"lon": -96.999763,
			"lat": 37.79752
		}
	},
	{
		"id": 4280539,
		"name": "Topeka",
		"state": "KS",
		"country": "US",
		"coord": {
			"lon": -95.67804,
			"lat": 39.048328
		}
	},
	{
		"id": 4280618,
		"name": "Tresham",
		"state": "KS",
		"country": "US",
		"coord": {
			"lon": -97.049759,
			"lat": 37.170029
		}
	},
	{
		"id": 4280660,
		"name": "Troy",
		"state": "KS",
		"country": "US",
		"coord": {
			"lon": -95.089973,
			"lat": 39.783051
		}
	},
	{
		"id": 4280910,
		"name": "Valley Center",
		"state": "KS",
		"country": "US",
		"coord": {
			"lon": -97.373383,
			"lat": 37.834728
		}
	},
	{
		"id": 4280917,
		"name": "Valley Falls",
		"state": "KS",
		"country": "US",
		"coord": {
			"lon": -95.460251,
			"lat": 39.34333
		}
	},
	{
		"id": 4281010,
		"name": "Victoria",
		"state": "KS",
		"country": "US",
		"coord": {
			"lon": -99.147598,
			"lat": 38.852791
		}
	},
	{
		"id": 4281083,
		"name": "WaKeeney",
		"state": "KS",
		"country": "US",
		"coord": {
			"lon": -99.87957,
			"lat": 39.025009
		}
	},
	{
		"id": 4281087,
		"name": "Wabaunsee County",
		"state": "KS",
		"country": "US",
		"coord": {
			"lon": -95.996101,
			"lat": 39.129169
		}
	},
	{
		"id": 4281227,
		"name": "Wamego",
		"state": "KS",
		"country": "US",
		"coord": {
			"lon": -96.305,
			"lat": 39.201939
		}
	},
	{
		"id": 4281253,
		"name": "Washington",
		"state": "KS",
		"country": "US",
		"coord": {
			"lon": -97.050858,
			"lat": 39.818062
		}
	},
	{
		"id": 4281323,
		"name": "Wathena",
		"state": "KS",
		"country": "US",
		"coord": {
			"lon": -94.949692,
			"lat": 39.759159
		}
	},
	{
		"id": 4281386,
		"name": "Wellington",
		"state": "KS",
		"country": "US",
		"coord": {
			"lon": -97.371712,
			"lat": 37.265301
		}
	},
	{
		"id": 4281412,
		"name": "Wellsville",
		"state": "KS",
		"country": "US",
		"coord": {
			"lon": -95.081642,
			"lat": 38.718342
		}
	},
	{
		"id": 4281614,
		"name": "Westmoreland",
		"state": "KS",
		"country": "US",
		"coord": {
			"lon": -96.413612,
			"lat": 39.39389
		}
	},
	{
		"id": 4281621,
		"name": "Westphalia",
		"state": "KS",
		"country": "US",
		"coord": {
			"lon": -95.490257,
			"lat": 38.181969
		}
	},
	{
		"id": 4281639,
		"name": "Westwood",
		"state": "KS",
		"country": "US",
		"coord": {
			"lon": -94.616898,
			"lat": 39.040562
		}
	},
	{
		"id": 4281730,
		"name": "Wichita",
		"state": "KS",
		"country": "US",
		"coord": {
			"lon": -97.33754,
			"lat": 37.692242
		}
	},
	{
		"id": 4281897,
		"name": "Winfield",
		"state": "KS",
		"country": "US",
		"coord": {
			"lon": -96.99559,
			"lat": 37.23975
		}
	},
	{
		"id": 4282006,
		"name": "Woodson County",
		"state": "KS",
		"country": "US",
		"coord": {
			"lon": -95.733597,
			"lat": 37.883369
		}
	},
	{
		"id": 4282035,
		"name": "Wyandotte County",
		"state": "KS",
		"country": "US",
		"coord": {
			"lon": -94.716904,
			"lat": 39.116669
		}
	},
	{
		"id": 4282061,
		"name": "Yates Center",
		"state": "KS",
		"country": "US",
		"coord": {
			"lon": -95.733322,
			"lat": 37.881149
		}
	},
	{
		"id": 4282211,
		"name": "Adair County",
		"state": "KY",
		"country": "US",
		"coord": {
			"lon": -85.299957,
			"lat": 37.11673
		}
	},
	{
		"id": 4282305,
		"name": "Albany",
		"state": "KY",
		"country": "US",
		"coord": {
			"lon": -85.134682,
			"lat": 36.690899
		}
	},
	{
		"id": 4282342,
		"name": "Alexandria",
		"state": "KY",
		"country": "US",
		"coord": {
			"lon": -84.387993,
			"lat": 38.959511
		}
	},
	{
		"id": 4282435,
		"name": "Alphoretta",
		"state": "KY",
		"country": "US",
		"coord": {
			"lon": -82.764328,
			"lat": 37.563148
		}
	},
	{
		"id": 4282497,
		"name": "Anchorage",
		"state": "KY",
		"country": "US",
		"coord": {
			"lon": -85.53302,
			"lat": 38.266739
		}
	},
	{
		"id": 4282553,
		"name": "Anna",
		"state": "KY",
		"country": "US",
		"coord": {
			"lon": -86.423042,
			"lat": 37.116428
		}
	},
	{
		"id": 4282563,
		"name": "Annville",
		"state": "KY",
		"country": "US",
		"coord": {
			"lon": -83.970482,
			"lat": 37.319248
		}
	},
	{
		"id": 4282658,
		"name": "Arlington",
		"state": "KY",
		"country": "US",
		"coord": {
			"lon": -84.307709,
			"lat": 37.760639
		}
	},
	{
		"id": 4282757,
		"name": "Ashland",
		"state": "KY",
		"country": "US",
		"coord": {
			"lon": -82.637939,
			"lat": 38.478409
		}
	},
	{
		"id": 4282812,
		"name": "Auburn",
		"state": "KY",
		"country": "US",
		"coord": {
			"lon": -86.710274,
			"lat": 36.864208
		}
	},
	{
		"id": 4282818,
		"name": "Audubon Park",
		"state": "KY",
		"country": "US",
		"coord": {
			"lon": -85.725243,
			"lat": 38.20396
		}
	},
	{
		"id": 4282836,
		"name": "Augusta",
		"state": "KY",
		"country": "US",
		"coord": {
			"lon": -84.007057,
			"lat": 38.77169
		}
	},
	{
		"id": 4283067,
		"name": "Ballard County",
		"state": "KY",
		"country": "US",
		"coord": {
			"lon": -89.000618,
			"lat": 37.050049
		}
	},
	{
		"id": 4283127,
		"name": "Barbourmeade",
		"state": "KY",
		"country": "US",
		"coord": {
			"lon": -85.603287,
			"lat": 38.297291
		}
	},
	{
		"id": 4283128,
		"name": "Barbourville",
		"state": "KY",
		"country": "US",
		"coord": {
			"lon": -83.888809,
			"lat": 36.866482
		}
	},
	{
		"id": 4283133,
		"name": "Bardstown",
		"state": "KY",
		"country": "US",
		"coord": {
			"lon": -85.466904,
			"lat": 37.809231
		}
	},
	{
		"id": 4283138,
		"name": "Bardwell",
		"state": "KY",
		"country": "US",
		"coord": {
			"lon": -89.009789,
			"lat": 36.870609
		}
	},
	{
		"id": 4283268,
		"name": "Barren County",
		"state": "KY",
		"country": "US",
		"coord": {
			"lon": -85.949982,
			"lat": 36.95005
		}
	},
	{
		"id": 4283541,
		"name": "Beattyville",
		"state": "KY",
		"country": "US",
		"coord": {
			"lon": -83.706863,
			"lat": 37.571751
		}
	},
	{
		"id": 4283557,
		"name": "Beaver Dam",
		"state": "KY",
		"country": "US",
		"coord": {
			"lon": -86.875832,
			"lat": 37.401989
		}
	},
	{
		"id": 4283606,
		"name": "Bedford",
		"state": "KY",
		"country": "US",
		"coord": {
			"lon": -85.317734,
			"lat": 38.59256
		}
	},
	{
		"id": 4283760,
		"name": "Beechwood Village",
		"state": "KY",
		"country": "US",
		"coord": {
			"lon": -85.631348,
			"lat": 38.254791
		}
	},
	{
		"id": 4283845,
		"name": "Bellevue",
		"state": "KY",
		"country": "US",
		"coord": {
			"lon": -84.478828,
			"lat": 39.106449
		}
	},
	{
		"id": 4283953,
		"name": "Benton",
		"state": "KY",
		"country": "US",
		"coord": {
			"lon": -88.350319,
			"lat": 36.857281
		}
	},
	{
		"id": 4283974,
		"name": "Berea",
		"state": "KY",
		"country": "US",
		"coord": {
			"lon": -84.296318,
			"lat": 37.568691
		}
	},
	{
		"id": 4285190,
		"name": "Booneville",
		"state": "KY",
		"country": "US",
		"coord": {
			"lon": -83.674911,
			"lat": 37.4762
		}
	},
	{
		"id": 4285268,
		"name": "Bowling Green",
		"state": "KY",
		"country": "US",
		"coord": {
			"lon": -86.443604,
			"lat": 36.990318
		}
	},
	{
		"id": 4285302,
		"name": "Boyd County",
		"state": "KY",
		"country": "US",
		"coord": {
			"lon": -82.68322,
			"lat": 38.366749
		}
	},
	{
		"id": 4285317,
		"name": "Boyle County",
		"state": "KY",
		"country": "US",
		"coord": {
			"lon": -84.866623,
			"lat": 37.633411
		}
	},
	{
		"id": 4285380,
		"name": "Brandenburg",
		"state": "KY",
		"country": "US",
		"coord": {
			"lon": -86.169411,
			"lat": 37.998959
		}
	},
	{
		"id": 4285427,
		"name": "Breckinridge Center",
		"state": "KY",
		"country": "US",
		"coord": {
			"lon": -87.863083,
			"lat": 37.682819
		}
	},
	{
		"id": 4285573,
		"name": "Brodhead",
		"state": "KY",
		"country": "US",
		"coord": {
			"lon": -84.413834,
			"lat": 37.404251
		}
	},
	{
		"id": 4285588,
		"name": "Brooks",
		"state": "KY",
		"country": "US",
		"coord": {
			"lon": -85.709679,
			"lat": 38.06118
		}
	},
	{
		"id": 4285607,
		"name": "Brooksville",
		"state": "KY",
		"country": "US",
		"coord": {
			"lon": -84.065758,
			"lat": 38.682571
		}
	},
	{
		"id": 4285708,
		"name": "Brownsville",
		"state": "KY",
		"country": "US",
		"coord": {
			"lon": -86.267754,
			"lat": 37.192551
		}
	},
	{
		"id": 4286037,
		"name": "Buckner",
		"state": "KY",
		"country": "US",
		"coord": {
			"lon": -85.439957,
			"lat": 38.383678
		}
	},
	{
		"id": 4286054,
		"name": "Buechel",
		"state": "KY",
		"country": "US",
		"coord": {
			"lon": -85.651901,
			"lat": 38.195068
		}
	},
	{
		"id": 4286280,
		"name": "Burkesville",
		"state": "KY",
		"country": "US",
		"coord": {
			"lon": -85.370522,
			"lat": 36.79034
		}
	},
	{
		"id": 4286281,
		"name": "Burlington",
		"state": "KY",
		"country": "US",
		"coord": {
			"lon": -84.724113,
			"lat": 39.027561
		}
	},
	{
		"id": 4286479,
		"name": "Cadiz",
		"state": "KY",
		"country": "US",
		"coord": {
			"lon": -87.835297,
			"lat": 36.865051
		}
	},
	{
		"id": 4286519,
		"name": "Calhoun",
		"state": "KY",
		"country": "US",
		"coord": {
			"lon": -87.258331,
			"lat": 37.53894
		}
	},
	{
		"id": 4286549,
		"name": "Calloway County",
		"state": "KY",
		"country": "US",
		"coord": {
			"lon": -88.266701,
			"lat": 36.633389
		}
	},
	{
		"id": 4286581,
		"name": "Calvert City",
		"state": "KY",
		"country": "US",
		"coord": {
			"lon": -88.350037,
			"lat": 37.03339
		}
	},
	{
		"id": 4286590,
		"name": "Camargo",
		"state": "KY",
		"country": "US",
		"coord": {
			"lon": -83.887703,
			"lat": 37.994251
		}
	},
	{
		"id": 4286705,
		"name": "Campbell County",
		"state": "KY",
		"country": "US",
		"coord": {
			"lon": -84.38327,
			"lat": 38.950062
		}
	},
	{
		"id": 4286717,
		"name": "Campbellsville",
		"state": "KY",
		"country": "US",
		"coord": {
			"lon": -85.341911,
			"lat": 37.343399
		}
	},
	{
		"id": 4286728,
		"name": "Campton",
		"state": "KY",
		"country": "US",
		"coord": {
			"lon": -83.547409,
			"lat": 37.734249
		}
	},
	{
		"id": 4286981,
		"name": "Carlisle",
		"state": "KY",
		"country": "US",
		"coord": {
			"lon": -84.027428,
			"lat": 38.312019
		}
	},
	{
		"id": 4287048,
		"name": "Carroll County",
		"state": "KY",
		"country": "US",
		"coord": {
			"lon": -85.116623,
			"lat": 38.650059
		}
	},
	{
		"id": 4287050,
		"name": "Carrollton",
		"state": "KY",
		"country": "US",
		"coord": {
			"lon": -85.179398,
			"lat": 38.680901
		}
	},
	{
		"id": 4287192,
		"name": "Catlettsburg",
		"state": "KY",
		"country": "US",
		"coord": {
			"lon": -82.600441,
			"lat": 38.4048
		}
	},
	{
		"id": 4287235,
		"name": "Cave City",
		"state": "KY",
		"country": "US",
		"coord": {
			"lon": -85.956917,
			"lat": 37.136719
		}
	},
	{
		"id": 4287450,
		"name": "Central City",
		"state": "KY",
		"country": "US",
		"coord": {
			"lon": -87.123329,
			"lat": 37.29393
		}
	},
	{
		"id": 4287749,
		"name": "Christian County",
		"state": "KY",
		"country": "US",
		"coord": {
			"lon": -87.483337,
			"lat": 36.883381
		}
	},
	{
		"id": 4287837,
		"name": "Clark County",
		"state": "KY",
		"country": "US",
		"coord": {
			"lon": -84.266602,
			"lat": 37.98341
		}
	},
	{
		"id": 4287872,
		"name": "Claryville",
		"state": "KY",
		"country": "US",
		"coord": {
			"lon": -84.395493,
			"lat": 38.919231
		}
	},
	{
		"id": 4287874,
		"name": "Clay",
		"state": "KY",
		"country": "US",
		"coord": {
			"lon": -87.820023,
			"lat": 37.476711
		}
	},
	{
		"id": 4287881,
		"name": "Clay City",
		"state": "KY",
		"country": "US",
		"coord": {
			"lon": -83.918533,
			"lat": 37.859249
		}
	},
	{
		"id": 4288062,
		"name": "Clinton",
		"state": "KY",
		"country": "US",
		"coord": {
			"lon": -88.993401,
			"lat": 36.667278
		}
	},
	{
		"id": 4288101,
		"name": "Cloverport",
		"state": "KY",
		"country": "US",
		"coord": {
			"lon": -86.632759,
			"lat": 37.833389
		}
	},
	{
		"id": 4288140,
		"name": "Coal Run Village",
		"state": "KY",
		"country": "US",
		"coord": {
			"lon": -82.558487,
			"lat": 37.513161
		}
	},
	{
		"id": 4288230,
		"name": "Cold Spring",
		"state": "KY",
		"country": "US",
		"coord": {
			"lon": -84.439941,
			"lat": 39.021729
		}
	},
	{
		"id": 4288250,
		"name": "Coldstream",
		"state": "KY",
		"country": "US",
		"coord": {
			"lon": -85.523849,
			"lat": 38.314789
		}
	},
	{
		"id": 4288366,
		"name": "Columbia",
		"state": "KY",
		"country": "US",
		"coord": {
			"lon": -85.306351,
			"lat": 37.10284
		}
	},
	{
		"id": 4288656,
		"name": "Corbin",
		"state": "KY",
		"country": "US",
		"coord": {
			"lon": -84.096878,
			"lat": 36.9487
		}
	},
	{
		"id": 4288809,
		"name": "Covington",
		"state": "KY",
		"country": "US",
		"coord": {
			"lon": -84.508553,
			"lat": 39.083672
		}
	},
	{
		"id": 4289028,
		"name": "Crescent Springs",
		"state": "KY",
		"country": "US",
		"coord": {
			"lon": -84.581612,
			"lat": 39.051449
		}
	},
	{
		"id": 4289040,
		"name": "Crestview Hills",
		"state": "KY",
		"country": "US",
		"coord": {
			"lon": -84.584938,
			"lat": 39.027279
		}
	},
	{
		"id": 4289042,
		"name": "Crestwood",
		"state": "KY",
		"country": "US",
		"coord": {
			"lon": -85.472458,
			"lat": 38.324242
		}
	},
	{
		"id": 4289072,
		"name": "Crittenden",
		"state": "KY",
		"country": "US",
		"coord": {
			"lon": -84.605217,
			"lat": 38.782841
		}
	},
	{
		"id": 4289232,
		"name": "Cumberland",
		"state": "KY",
		"country": "US",
		"coord": {
			"lon": -82.988503,
			"lat": 36.978149
		}
	},
	{
		"id": 4289323,
		"name": "Cynthiana",
		"state": "KY",
		"country": "US",
		"coord": {
			"lon": -84.294098,
			"lat": 38.39035
		}
	},
	{
		"id": 4289445,
		"name": "Danville",
		"state": "KY",
		"country": "US",
		"coord": {
			"lon": -84.772171,
			"lat": 37.64563
		}
	},
	{
		"id": 4289518,
		"name": "Daviess County",
		"state": "KY",
		"country": "US",
		"coord": {
			"lon": -87.116661,
			"lat": 37.70005
		}
	},
	{
		"id": 4289570,
		"name": "Davis Hill",
		"state": "KY",
		"country": "US",
		"coord": {
			"lon": -84.836617,
			"lat": 37.648689
		}
	},
	{
		"id": 4289606,
		"name": "Dawson Springs",
		"state": "KY",
		"country": "US",
		"coord": {
			"lon": -87.692513,
			"lat": 37.167271
		}
	},
	{
		"id": 4289629,
		"name": "Dayton",
		"state": "KY",
		"country": "US",
		"coord": {
			"lon": -84.472717,
			"lat": 39.112839
		}
	},
	{
		"id": 4289966,
		"name": "Dixon",
		"state": "KY",
		"country": "US",
		"coord": {
			"lon": -87.690292,
			"lat": 37.517818
		}
	},
	{
		"id": 4290181,
		"name": "Douglass Hills",
		"state": "KY",
		"country": "US",
		"coord": {
			"lon": -85.552742,
			"lat": 38.23785
		}
	},
	{
		"id": 4290421,
		"name": "Dry Ridge",
		"state": "KY",
		"country": "US",
		"coord": {
			"lon": -84.589943,
			"lat": 38.682011
		}
	},
	{
		"id": 4290554,
		"name": "Dunleary",
		"state": "KY",
		"country": "US",
		"coord": {
			"lon": -82.366257,
			"lat": 37.318161
		}
	},
	{
		"id": 4290651,
		"name": "Dykes",
		"state": "KY",
		"country": "US",
		"coord": {
			"lon": -84.435768,
			"lat": 37.068138
		}
	},
	{
		"id": 4290685,
		"name": "Earlington",
		"state": "KY",
		"country": "US",
		"coord": {
			"lon": -87.51194,
			"lat": 37.274212
		}
	},
	{
		"id": 4290809,
		"name": "Eastland Park",
		"state": "KY",
		"country": "US",
		"coord": {
			"lon": -86.438316,
			"lat": 36.959492
		}
	},
	{
		"id": 4290859,
		"name": "Eddyville",
		"state": "KY",
		"country": "US",
		"coord": {
			"lon": -88.080299,
			"lat": 37.094501
		}
	},
	{
		"id": 4290873,
		"name": "Edgewood",
		"state": "KY",
		"country": "US",
		"coord": {
			"lon": -84.581886,
			"lat": 39.018669
		}
	},
	{
		"id": 4290886,
		"name": "Edmonton",
		"state": "KY",
		"country": "US",
		"coord": {
			"lon": -85.61219,
			"lat": 36.980061
		}
	},
	{
		"id": 4290988,
		"name": "Elizabethtown",
		"state": "KY",
		"country": "US",
		"coord": {
			"lon": -85.859131,
			"lat": 37.693951
		}
	},
	{
		"id": 4291056,
		"name": "Elkfork",
		"state": "KY",
		"country": "US",
		"coord": {
			"lon": -83.13295,
			"lat": 37.964809
		}
	},
	{
		"id": 4291079,
		"name": "Elkton",
		"state": "KY",
		"country": "US",
		"coord": {
			"lon": -87.154167,
			"lat": 36.81004
		}
	},
	{
		"id": 4291156,
		"name": "Elsmere",
		"state": "KY",
		"country": "US",
		"coord": {
			"lon": -84.604668,
			"lat": 39.012562
		}
	},
	{
		"id": 4291181,
		"name": "Eminence",
		"state": "KY",
		"country": "US",
		"coord": {
			"lon": -85.180511,
			"lat": 38.370071
		}
	},
	{
		"id": 4291255,
		"name": "Erlanger",
		"state": "KY",
		"country": "US",
		"coord": {
			"lon": -84.600777,
			"lat": 39.016731
		}
	},
	{
		"id": 4291373,
		"name": "Fairdale",
		"state": "KY",
		"country": "US",
		"coord": {
			"lon": -85.75885,
			"lat": 38.105068
		}
	},
	{
		"id": 4291501,
		"name": "Falmouth",
		"state": "KY",
		"country": "US",
		"coord": {
			"lon": -84.330208,
			"lat": 38.676739
		}
	},
	{
		"id": 4291564,
		"name": "Fayette County",
		"state": "KY",
		"country": "US",
		"coord": {
			"lon": -84.449944,
			"lat": 38.050079
		}
	},
	{
		"id": 4291620,
		"name": "Fern Creek",
		"state": "KY",
		"country": "US",
		"coord": {
			"lon": -85.587738,
			"lat": 38.15979
		}
	},
	{
		"id": 4291884,
		"name": "Flatwoods",
		"state": "KY",
		"country": "US",
		"coord": {
			"lon": -82.71711,
			"lat": 38.522579
		}
	},
	{
		"id": 4291905,
		"name": "Flemingsburg",
		"state": "KY",
		"country": "US",
		"coord": {
			"lon": -83.73381,
			"lat": 38.422298
		}
	},
	{
		"id": 4291945,
		"name": "Florence",
		"state": "KY",
		"country": "US",
		"coord": {
			"lon": -84.62661,
			"lat": 38.998951
		}
	},
	{
		"id": 4291960,
		"name": "Floyd County",
		"state": "KY",
		"country": "US",
		"coord": {
			"lon": -82.750443,
			"lat": 37.550098
		}
	},
	{
		"id": 4292067,
		"name": "Fort Mitchell",
		"state": "KY",
		"country": "US",
		"coord": {
			"lon": -84.54744,
			"lat": 39.059502
		}
	},
	{
		"id": 4292071,
		"name": "Fort Thomas",
		"state": "KY",
		"country": "US",
		"coord": {
			"lon": -84.447159,
			"lat": 39.075062
		}
	},
	{
		"id": 4292072,
		"name": "Fort Wright",
		"state": "KY",
		"country": "US",
		"coord": {
			"lon": -84.534111,
			"lat": 39.051731
		}
	},
	{
		"id": 4292182,
		"name": "Francisville",
		"state": "KY",
		"country": "US",
		"coord": {
			"lon": -84.724388,
			"lat": 39.105061
		}
	},
	{
		"id": 4292188,
		"name": "Frankfort",
		"state": "KY",
		"country": "US",
		"coord": {
			"lon": -84.873283,
			"lat": 38.200909
		}
	},
	{
		"id": 4292193,
		"name": "Franklin",
		"state": "KY",
		"country": "US",
		"coord": {
			"lon": -86.577217,
			"lat": 36.72226
		}
	},
	{
		"id": 4292202,
		"name": "Franklin County",
		"state": "KY",
		"country": "US",
		"coord": {
			"lon": -84.866623,
			"lat": 38.233398
		}
	},
	{
		"id": 4292308,
		"name": "Frenchburg",
		"state": "KY",
		"country": "US",
		"coord": {
			"lon": -83.625748,
			"lat": 37.95092
		}
	},
	{
		"id": 4292424,
		"name": "Fulton",
		"state": "KY",
		"country": "US",
		"coord": {
			"lon": -88.874229,
			"lat": 36.50423
		}
	},
	{
		"id": 4292454,
		"name": "Future City",
		"state": "KY",
		"country": "US",
		"coord": {
			"lon": -88.80172,
			"lat": 37.06255
		}
	},
	{
		"id": 4292686,
		"name": "Georgetown",
		"state": "KY",
		"country": "US",
		"coord": {
			"lon": -84.55883,
			"lat": 38.209801
		}
	},
	{
		"id": 4292826,
		"name": "Glasgow",
		"state": "KY",
		"country": "US",
		"coord": {
			"lon": -85.911919,
			"lat": 36.99588
		}
	},
	{
		"id": 4293148,
		"name": "Grant County",
		"state": "KY",
		"country": "US",
		"coord": {
			"lon": -84.64994,
			"lat": 38.65007
		}
	},
	{
		"id": 4293284,
		"name": "Graymoor-Devondale",
		"state": "KY",
		"country": "US",
		"coord": {
			"lon": -85.623016,
			"lat": 38.273129
		}
	},
	{
		"id": 4293311,
		"name": "Grayson",
		"state": "KY",
		"country": "US",
		"coord": {
			"lon": -82.948502,
			"lat": 38.332581
		}
	},
	{
		"id": 4293382,
		"name": "Green Hill",
		"state": "KY",
		"country": "US",
		"coord": {
			"lon": -83.965477,
			"lat": 37.296478
		}
	},
	{
		"id": 4293470,
		"name": "Greensburg",
		"state": "KY",
		"country": "US",
		"coord": {
			"lon": -85.498848,
			"lat": 37.260891
		}
	},
	{
		"id": 4293473,
		"name": "Greenup",
		"state": "KY",
		"country": "US",
		"coord": {
			"lon": -82.83017,
			"lat": 38.573132
		}
	},
	{
		"id": 4293477,
		"name": "Greenville",
		"state": "KY",
		"country": "US",
		"coord": {
			"lon": -87.178886,
			"lat": 37.201149
		}
	},
	{
		"id": 4293704,
		"name": "Guthrie",
		"state": "KY",
		"country": "US",
		"coord": {
			"lon": -87.166389,
			"lat": 36.64838
		}
	},
	{
		"id": 4293895,
		"name": "Hamim",
		"state": "KY",
		"country": "US",
		"coord": {
			"lon": -83.313789,
			"lat": 38.127579
		}
	},
	{
		"id": 4294031,
		"name": "Hardin County",
		"state": "KY",
		"country": "US",
		"coord": {
			"lon": -85.966629,
			"lat": 37.700062
		}
	},
	{
		"id": 4294044,
		"name": "Hardinsburg",
		"state": "KY",
		"country": "US",
		"coord": {
			"lon": -86.460533,
			"lat": 37.78006
		}
	},
	{
		"id": 4294072,
		"name": "Harlan",
		"state": "KY",
		"country": "US",
		"coord": {
			"lon": -83.321854,
			"lat": 36.84314
		}
	},
	{
		"id": 4294180,
		"name": "Harrodsburg",
		"state": "KY",
		"country": "US",
		"coord": {
			"lon": -84.843292,
			"lat": 37.762299
		}
	},
	{
		"id": 4294195,
		"name": "Hartford",
		"state": "KY",
		"country": "US",
		"coord": {
			"lon": -86.909157,
			"lat": 37.45116
		}
	},
	{
		"id": 4294267,
		"name": "Hawesville",
		"state": "KY",
		"country": "US",
		"coord": {
			"lon": -86.75499,
			"lat": 37.900059
		}
	},
	{
		"id": 4294349,
		"name": "Hazard",
		"state": "KY",
		"country": "US",
		"coord": {
			"lon": -83.19323,
			"lat": 37.249538
		}
	},
	{
		"id": 4294425,
		"name": "Hebron",
		"state": "KY",
		"country": "US",
		"coord": {
			"lon": -84.701057,
			"lat": 39.065891
		}
	},
	{
		"id": 4294433,
		"name": "Hebron Estates",
		"state": "KY",
		"country": "US",
		"coord": {
			"lon": -85.666069,
			"lat": 38.049511
		}
	},
	{
		"id": 4294494,
		"name": "Henderson",
		"state": "KY",
		"country": "US",
		"coord": {
			"lon": -87.590012,
			"lat": 37.836151
		}
	},
	{
		"id": 4294512,
		"name": "Henderson County",
		"state": "KY",
		"country": "US",
		"coord": {
			"lon": -87.566681,
			"lat": 37.783379
		}
	},
	{
		"id": 4294526,
		"name": "Hendron",
		"state": "KY",
		"country": "US",
		"coord": {
			"lon": -88.629219,
			"lat": 37.039501
		}
	},
	{
		"id": 4294625,
		"name": "Hickman",
		"state": "KY",
		"country": "US",
		"coord": {
			"lon": -89.18618,
			"lat": 36.571171
		}
	},
	{
		"id": 4294771,
		"name": "Highland Park",
		"state": "KY",
		"country": "US",
		"coord": {
			"lon": -85.753021,
			"lat": 38.184509
		}
	},
	{
		"id": 4294788,
		"name": "Highland Heights",
		"state": "KY",
		"country": "US",
		"coord": {
			"lon": -84.451889,
			"lat": 39.033119
		}
	},
	{
		"id": 4294799,
		"name": "Highview",
		"state": "KY",
		"country": "US",
		"coord": {
			"lon": -85.62413,
			"lat": 38.142849
		}
	},
	{
		"id": 4294858,
		"name": "Hillview",
		"state": "KY",
		"country": "US",
		"coord": {
			"lon": -85.685509,
			"lat": 38.06979
		}
	},
	{
		"id": 4294872,
		"name": "Hindman",
		"state": "KY",
		"country": "US",
		"coord": {
			"lon": -82.980438,
			"lat": 37.33593
		}
	},
	{
		"id": 4294937,
		"name": "Hodgenville",
		"state": "KY",
		"country": "US",
		"coord": {
			"lon": -85.73996,
			"lat": 37.573952
		}
	},
	{
		"id": 4295247,
		"name": "Hopkins County",
		"state": "KY",
		"country": "US",
		"coord": {
			"lon": -87.550003,
			"lat": 37.333382
		}
	},
	{
		"id": 4295251,
		"name": "Hopkinsville",
		"state": "KY",
		"country": "US",
		"coord": {
			"lon": -87.488617,
			"lat": 36.865601
		}
	},
	{
		"id": 4295288,
		"name": "Horse Cave",
		"state": "KY",
		"country": "US",
		"coord": {
			"lon": -85.906921,
			"lat": 37.179501
		}
	},
	{
		"id": 4295443,
		"name": "Howardstown",
		"state": "KY",
		"country": "US",
		"coord": {
			"lon": -85.591911,
			"lat": 37.572281
		}
	},
	{
		"id": 4295686,
		"name": "Hurstbourne Acres",
		"state": "KY",
		"country": "US",
		"coord": {
			"lon": -85.589127,
			"lat": 38.22118
		}
	},
	{
		"id": 4295689,
		"name": "Hurstbourne",
		"state": "KY",
		"country": "US",
		"coord": {
			"lon": -85.588287,
			"lat": 38.238129
		}
	},
	{
		"id": 4295712,
		"name": "Hyden",
		"state": "KY",
		"country": "US",
		"coord": {
			"lon": -83.373238,
			"lat": 37.160931
		}
	},
	{
		"id": 4295776,
		"name": "Independence",
		"state": "KY",
		"country": "US",
		"coord": {
			"lon": -84.544113,
			"lat": 38.943119
		}
	},
	{
		"id": 4295852,
		"name": "Indian Hills",
		"state": "KY",
		"country": "US",
		"coord": {
			"lon": -85.662743,
			"lat": 38.272572
		}
	},
	{
		"id": 4295856,
		"name": "Indian Hills Cherokee Section",
		"state": "KY",
		"country": "US",
		"coord": {
			"lon": -85.649963,
			"lat": 38.27951
		}
	},
	{
		"id": 4295878,
		"name": "Inez",
		"state": "KY",
		"country": "US",
		"coord": {
			"lon": -82.538757,
			"lat": 37.866482
		}
	},
	{
		"id": 4295928,
		"name": "Irad",
		"state": "KY",
		"country": "US",
		"coord": {
			"lon": -82.738487,
			"lat": 38.09203
		}
	},
	{
		"id": 4295954,
		"name": "Irvine",
		"state": "KY",
		"country": "US",
		"coord": {
			"lon": -83.973808,
			"lat": 37.700642
		}
	},
	{
		"id": 4295960,
		"name": "Irvington",
		"state": "KY",
		"country": "US",
		"coord": {
			"lon": -86.283859,
			"lat": 37.880341
		}
	},
	{
		"id": 4296081,
		"name": "Jackson",
		"state": "KY",
		"country": "US",
		"coord": {
			"lon": -83.383507,
			"lat": 37.55315
		}
	},
	{
		"id": 4296082,
		"name": "Jackson",
		"state": "KY",
		"country": "US",
		"coord": {
			"lon": -84.870789,
			"lat": 37.825081
		}
	},
	{
		"id": 4296106,
		"name": "Jackson County",
		"state": "KY",
		"country": "US",
		"coord": {
			"lon": -84.000481,
			"lat": 37.416752
		}
	},
	{
		"id": 4296173,
		"name": "Jamestown",
		"state": "KY",
		"country": "US",
		"coord": {
			"lon": -85.063011,
			"lat": 36.984791
		}
	},
	{
		"id": 4296212,
		"name": "Jefferson County",
		"state": "KY",
		"country": "US",
		"coord": {
			"lon": -85.649963,
			"lat": 38.183399
		}
	},
	{
		"id": 4296218,
		"name": "Jeffersontown",
		"state": "KY",
		"country": "US",
		"coord": {
			"lon": -85.5644,
			"lat": 38.194241
		}
	},
	{
		"id": 4296219,
		"name": "Jeffersonville",
		"state": "KY",
		"country": "US",
		"coord": {
			"lon": -83.841858,
			"lat": 37.97369
		}
	},
	{
		"id": 4296229,
		"name": "Jenkins",
		"state": "KY",
		"country": "US",
		"coord": {
			"lon": -82.630989,
			"lat": 37.173439
		}
	},
	{
		"id": 4296292,
		"name": "Jessamine County",
		"state": "KY",
		"country": "US",
		"coord": {
			"lon": -84.566612,
			"lat": 37.866749
		}
	},
	{
		"id": 4296734,
		"name": "Junction City",
		"state": "KY",
		"country": "US",
		"coord": {
			"lon": -84.793839,
			"lat": 37.586739
		}
	},
	{
		"id": 4296777,
		"name": "Kavanaugh",
		"state": "KY",
		"country": "US",
		"coord": {
			"lon": -82.586823,
			"lat": 38.253422
		}
	},
	{
		"id": 4296902,
		"name": "Kenton County",
		"state": "KY",
		"country": "US",
		"coord": {
			"lon": -84.533279,
			"lat": 38.950062
		}
	},
	{
		"id": 4297062,
		"name": "Kingsley",
		"state": "KY",
		"country": "US",
		"coord": {
			"lon": -85.671913,
			"lat": 38.220901
		}
	},
	{
		"id": 4297236,
		"name": "La Center",
		"state": "KY",
		"country": "US",
		"coord": {
			"lon": -88.973679,
			"lat": 37.076721
		}
	},
	{
		"id": 4297238,
		"name": "La Grange",
		"state": "KY",
		"country": "US",
		"coord": {
			"lon": -85.378853,
			"lat": 38.40757
		}
	},
	{
		"id": 4297318,
		"name": "Lakeside Park",
		"state": "KY",
		"country": "US",
		"coord": {
			"lon": -84.569107,
			"lat": 39.035622
		}
	},
	{
		"id": 4297354,
		"name": "Lancaster",
		"state": "KY",
		"country": "US",
		"coord": {
			"lon": -84.578003,
			"lat": 37.619518
		}
	},
	{
		"id": 4297576,
		"name": "Lawrence County",
		"state": "KY",
		"country": "US",
		"coord": {
			"lon": -82.766548,
			"lat": 38.066761
		}
	},
	{
		"id": 4297581,
		"name": "Lawrenceburg",
		"state": "KY",
		"country": "US",
		"coord": {
			"lon": -84.896622,
			"lat": 38.0373
		}
	},
	{
		"id": 4297653,
		"name": "Lebanon",
		"state": "KY",
		"country": "US",
		"coord": {
			"lon": -85.252739,
			"lat": 37.56979
		}
	},
	{
		"id": 4297664,
		"name": "Lebanon Junction",
		"state": "KY",
		"country": "US",
		"coord": {
			"lon": -85.731903,
			"lat": 37.834511
		}
	},
	{
		"id": 4297673,
		"name": "Ledbetter",
		"state": "KY",
		"country": "US",
		"coord": {
			"lon": -88.47699,
			"lat": 37.047562
		}
	},
	{
		"id": 4297882,
		"name": "Leitchfield",
		"state": "KY",
		"country": "US",
		"coord": {
			"lon": -86.293861,
			"lat": 37.480049
		}
	},
	{
		"id": 4297909,
		"name": "Letcher County",
		"state": "KY",
		"country": "US",
		"coord": {
			"lon": -82.866547,
			"lat": 37.13343
		}
	},
	{
		"id": 4297955,
		"name": "Lewis County",
		"state": "KY",
		"country": "US",
		"coord": {
			"lon": -83.483238,
			"lat": 38.533409
		}
	},
	{
		"id": 4297979,
		"name": "Lewisport",
		"state": "KY",
		"country": "US",
		"coord": {
			"lon": -86.902206,
			"lat": 37.937
		}
	},
	{
		"id": 4297983,
		"name": "Lexington",
		"state": "KY",
		"country": "US",
		"coord": {
			"lon": -84.477722,
			"lat": 37.988689
		}
	},
	{
		"id": 4297999,
		"name": "Lexington-Fayette",
		"state": "KY",
		"country": "US",
		"coord": {
			"lon": -84.458549,
			"lat": 38.049801
		}
	},
	{
		"id": 4298003,
		"name": "Liberty",
		"state": "KY",
		"country": "US",
		"coord": {
			"lon": -84.9394,
			"lat": 37.318409
		}
	},
	{
		"id": 4298005,
		"name": "Liberty",
		"state": "KY",
		"country": "US",
		"coord": {
			"lon": -87.19278,
			"lat": 36.8881
		}
	},
	{
		"id": 4298558,
		"name": "Little Georgetown",
		"state": "KY",
		"country": "US",
		"coord": {
			"lon": -84.615784,
			"lat": 38.02647
		}
	},
	{
		"id": 4298805,
		"name": "Livermore",
		"state": "KY",
		"country": "US",
		"coord": {
			"lon": -87.131943,
			"lat": 37.493099
		}
	},
	{
		"id": 4298960,
		"name": "London",
		"state": "KY",
		"country": "US",
		"coord": {
			"lon": -84.08326,
			"lat": 37.128979
		}
	},
	{
		"id": 4299275,
		"name": "Louisa",
		"state": "KY",
		"country": "US",
		"coord": {
			"lon": -82.60321,
			"lat": 38.11425
		}
	},
	{
		"id": 4299276,
		"name": "Louisville",
		"state": "KY",
		"country": "US",
		"coord": {
			"lon": -85.759407,
			"lat": 38.254238
		}
	},
	{
		"id": 4299510,
		"name": "Loyall",
		"state": "KY",
		"country": "US",
		"coord": {
			"lon": -83.354073,
			"lat": 36.852032
		}
	},
	{
		"id": 4299531,
		"name": "Ludlow",
		"state": "KY",
		"country": "US",
		"coord": {
			"lon": -84.54744,
			"lat": 39.09256
		}
	},
	{
		"id": 4299562,
		"name": "Lyndon",
		"state": "KY",
		"country": "US",
		"coord": {
			"lon": -85.601631,
			"lat": 38.256741
		}
	},
	{
		"id": 4299665,
		"name": "Madison County",
		"state": "KY",
		"country": "US",
		"coord": {
			"lon": -84.299927,
			"lat": 37.73341
		}
	},
	{
		"id": 4299670,
		"name": "Madisonville",
		"state": "KY",
		"country": "US",
		"coord": {
			"lon": -87.498894,
			"lat": 37.328098
		}
	},
	{
		"id": 4299741,
		"name": "Manchester",
		"state": "KY",
		"country": "US",
		"coord": {
			"lon": -83.761864,
			"lat": 37.153702
		}
	},
	{
		"id": 4299842,
		"name": "Marion",
		"state": "KY",
		"country": "US",
		"coord": {
			"lon": -88.081131,
			"lat": 37.332829
		}
	},
	{
		"id": 4300012,
		"name": "Mason County",
		"state": "KY",
		"country": "US",
		"coord": {
			"lon": -83.799919,
			"lat": 38.583408
		}
	},
	{
		"id": 4300024,
		"name": "Masonville",
		"state": "KY",
		"country": "US",
		"coord": {
			"lon": -87.034721,
			"lat": 37.675049
		}
	},
	{
		"id": 4300026,
		"name": "Massac",
		"state": "KY",
		"country": "US",
		"coord": {
			"lon": -88.730614,
			"lat": 37.01672
		}
	},
	{
		"id": 4300105,
		"name": "Mayfield",
		"state": "KY",
		"country": "US",
		"coord": {
			"lon": -88.636719,
			"lat": 36.741718
		}
	},
	{
		"id": 4300152,
		"name": "Maysville",
		"state": "KY",
		"country": "US",
		"coord": {
			"lon": -83.744362,
			"lat": 38.64119
		}
	},
	{
		"id": 4300244,
		"name": "McCracken County",
		"state": "KY",
		"country": "US",
		"coord": {
			"lon": -88.70005,
			"lat": 37.05006
		}
	},
	{
		"id": 4300339,
		"name": "McKee",
		"state": "KY",
		"country": "US",
		"coord": {
			"lon": -83.997978,
			"lat": 37.430359
		}
	},
	{
		"id": 4300717,
		"name": "Middlesboro",
		"state": "KY",
		"country": "US",
		"coord": {
			"lon": -83.716583,
			"lat": 36.608421
		}
	},
	{
		"id": 4300725,
		"name": "Middletown",
		"state": "KY",
		"country": "US",
		"coord": {
			"lon": -85.538849,
			"lat": 38.24535
		}
	},
	{
		"id": 4300739,
		"name": "Midway",
		"state": "KY",
		"country": "US",
		"coord": {
			"lon": -84.68383,
			"lat": 38.150909
		}
	},
	{
		"id": 4301094,
		"name": "Heritage Creek",
		"state": "KY",
		"country": "US",
		"coord": {
			"lon": -85.719681,
			"lat": 38.12368
		}
	},
	{
		"id": 4301224,
		"name": "Monticello",
		"state": "KY",
		"country": "US",
		"coord": {
			"lon": -84.849113,
			"lat": 36.829788
		}
	},
	{
		"id": 4301229,
		"name": "Monticello",
		"state": "KY",
		"country": "US",
		"coord": {
			"lon": -84.550217,
			"lat": 37.992298
		}
	},
	{
		"id": 4301307,
		"name": "Morehead",
		"state": "KY",
		"country": "US",
		"coord": {
			"lon": -83.432678,
			"lat": 38.183971
		}
	},
	{
		"id": 4301317,
		"name": "Morehead",
		"state": "KY",
		"country": "US",
		"coord": {
			"lon": -87.176376,
			"lat": 37.271149
		}
	},
	{
		"id": 4301345,
		"name": "Morganfield",
		"state": "KY",
		"country": "US",
		"coord": {
			"lon": -87.916687,
			"lat": 37.68338
		}
	},
	{
		"id": 4301349,
		"name": "Morgantown",
		"state": "KY",
		"country": "US",
		"coord": {
			"lon": -86.683601,
			"lat": 37.225601
		}
	},
	{
		"id": 4301603,
		"name": "Mount Olivet",
		"state": "KY",
		"country": "US",
		"coord": {
			"lon": -84.036873,
			"lat": 38.53146
		}
	},
	{
		"id": 4301683,
		"name": "Mount Sterling",
		"state": "KY",
		"country": "US",
		"coord": {
			"lon": -83.94326,
			"lat": 38.056469
		}
	},
	{
		"id": 4301702,
		"name": "Mount Vernon",
		"state": "KY",
		"country": "US",
		"coord": {
			"lon": -84.495216,
			"lat": 38.025631
		}
	},
	{
		"id": 4301703,
		"name": "Mount Vernon",
		"state": "KY",
		"country": "US",
		"coord": {
			"lon": -84.340492,
			"lat": 37.352859
		}
	},
	{
		"id": 4301732,
		"name": "Mount Washington",
		"state": "KY",
		"country": "US",
		"coord": {
			"lon": -85.545792,
			"lat": 38.05006
		}
	},
	{
		"id": 4302012,
		"name": "Munfordville",
		"state": "KY",
		"country": "US",
		"coord": {
			"lon": -85.891083,
			"lat": 37.272282
		}
	},
	{
		"id": 4302035,
		"name": "Murray",
		"state": "KY",
		"country": "US",
		"coord": {
			"lon": -88.314758,
			"lat": 36.610329
		}
	},
	{
		"id": 4302277,
		"name": "Nelson County",
		"state": "KY",
		"country": "US",
		"coord": {
			"lon": -85.466629,
			"lat": 37.80006
		}
	},
	{
		"id": 4302338,
		"name": "New Castle",
		"state": "KY",
		"country": "US",
		"coord": {
			"lon": -85.169678,
			"lat": 38.433399
		}
	},
	{
		"id": 4302504,
		"name": "Newburg",
		"state": "KY",
		"country": "US",
		"coord": {
			"lon": -85.659683,
			"lat": 38.160069
		}
	},
	{
		"id": 4302529,
		"name": "Newport",
		"state": "KY",
		"country": "US",
		"coord": {
			"lon": -84.495781,
			"lat": 39.09145
		}
	},
	{
		"id": 4302561,
		"name": "Nicholasville",
		"state": "KY",
		"country": "US",
		"coord": {
			"lon": -84.572998,
			"lat": 37.88063
		}
	},
	{
		"id": 4302681,
		"name": "North Corbin",
		"state": "KY",
		"country": "US",
		"coord": {
			"lon": -84.093262,
			"lat": 36.96064
		}
	},
	{
		"id": 4302761,
		"name": "Northfield",
		"state": "KY",
		"country": "US",
		"coord": {
			"lon": -85.641068,
			"lat": 38.28701
		}
	},
	{
		"id": 4302778,
		"name": "Nortonville",
		"state": "KY",
		"country": "US",
		"coord": {
			"lon": -87.452782,
			"lat": 37.19088
		}
	},
	{
		"id": 4302827,
		"name": "Oak Grove",
		"state": "KY",
		"country": "US",
		"coord": {
			"lon": -87.442787,
			"lat": 36.665051
		}
	},
	{
		"id": 4302828,
		"name": "Oak Grove",
		"state": "KY",
		"country": "US",
		"coord": {
			"lon": -86.754707,
			"lat": 37.344212
		}
	},
	{
		"id": 4302910,
		"name": "Oakbrook",
		"state": "KY",
		"country": "US",
		"coord": {
			"lon": -84.685219,
			"lat": 38.999779
		}
	},
	{
		"id": 4302988,
		"name": "Oil City",
		"state": "KY",
		"country": "US",
		"coord": {
			"lon": -85.983032,
			"lat": 37.033379
		}
	},
	{
		"id": 4303012,
		"name": "Okolona",
		"state": "KY",
		"country": "US",
		"coord": {
			"lon": -85.687737,
			"lat": 38.141178
		}
	},
	{
		"id": 4303152,
		"name": "Old Washington",
		"state": "KY",
		"country": "US",
		"coord": {
			"lon": -83.808533,
			"lat": 38.61591
		}
	},
	{
		"id": 4303194,
		"name": "Olive Hill",
		"state": "KY",
		"country": "US",
		"coord": {
			"lon": -83.174072,
			"lat": 38.300079
		}
	},
	{
		"id": 4303297,
		"name": "Orchard Grass Hills",
		"state": "KY",
		"country": "US",
		"coord": {
			"lon": -85.521347,
			"lat": 38.323681
		}
	},
	{
		"id": 4303436,
		"name": "Owensboro",
		"state": "KY",
		"country": "US",
		"coord": {
			"lon": -87.113327,
			"lat": 37.77422
		}
	},
	{
		"id": 4303439,
		"name": "Owenton",
		"state": "KY",
		"country": "US",
		"coord": {
			"lon": -84.841888,
			"lat": 38.536461
		}
	},
	{
		"id": 4303441,
		"name": "Owingsville",
		"state": "KY",
		"country": "US",
		"coord": {
			"lon": -83.764076,
			"lat": 38.144798
		}
	},
	{
		"id": 4303543,
		"name": "Paintsville",
		"state": "KY",
		"country": "US",
		"coord": {
			"lon": -82.807114,
			"lat": 37.814541
		}
	},
	{
		"id": 4303595,
		"name": "Park Hills",
		"state": "KY",
		"country": "US",
		"coord": {
			"lon": -84.532173,
			"lat": 39.071449
		}
	},
	{
		"id": 4303602,
		"name": "Paris",
		"state": "KY",
		"country": "US",
		"coord": {
			"lon": -84.252991,
			"lat": 38.209801
		}
	},
	{
		"id": 4303951,
		"name": "Perry County",
		"state": "KY",
		"country": "US",
		"coord": {
			"lon": -83.199898,
			"lat": 37.250648
		}
	},
	{
		"id": 4304058,
		"name": "Pewee Valley",
		"state": "KY",
		"country": "US",
		"coord": {
			"lon": -85.487457,
			"lat": 38.310619
		}
	},
	{
		"id": 4304226,
		"name": "Pike County",
		"state": "KY",
		"country": "US",
		"coord": {
			"lon": -82.349869,
			"lat": 37.46677
		}
	},
	{
		"id": 4304232,
		"name": "Pikeville",
		"state": "KY",
		"country": "US",
		"coord": {
			"lon": -82.518761,
			"lat": 37.479271
		}
	},
	{
		"id": 4304361,
		"name": "Pine Knot",
		"state": "KY",
		"country": "US",
		"coord": {
			"lon": -84.438553,
			"lat": 36.650909
		}
	},
	{
		"id": 4304396,
		"name": "Pineville",
		"state": "KY",
		"country": "US",
		"coord": {
			"lon": -83.694923,
			"lat": 36.762032
		}
	},
	{
		"id": 4304448,
		"name": "Pioneer Village",
		"state": "KY",
		"country": "US",
		"coord": {
			"lon": -85.677742,
			"lat": 38.060619
		}
	},
	{
		"id": 4304523,
		"name": "Plano",
		"state": "KY",
		"country": "US",
		"coord": {
			"lon": -86.41832,
			"lat": 36.880322
		}
	},
	{
		"id": 4304713,
		"name": "Pleasure Ridge Park",
		"state": "KY",
		"country": "US",
		"coord": {
			"lon": -85.858299,
			"lat": 38.145351
		}
	},
	{
		"id": 4305121,
		"name": "Powell County",
		"state": "KY",
		"country": "US",
		"coord": {
			"lon": -83.816582,
			"lat": 37.83342
		}
	},
	{
		"id": 4305208,
		"name": "Prestonville",
		"state": "KY",
		"country": "US",
		"coord": {
			"lon": -85.190231,
			"lat": 38.679779
		}
	},
	{
		"id": 4305210,
		"name": "Prestonsburg",
		"state": "KY",
		"country": "US",
		"coord": {
			"lon": -82.771553,
			"lat": 37.665649
		}
	},
	{
		"id": 4305266,
		"name": "Princeton",
		"state": "KY",
		"country": "US",
		"coord": {
			"lon": -87.881958,
			"lat": 37.109219
		}
	},
	{
		"id": 4305287,
		"name": "Prospect",
		"state": "KY",
		"country": "US",
		"coord": {
			"lon": -85.615517,
			"lat": 38.34507
		}
	},
	{
		"id": 4305294,
		"name": "Providence",
		"state": "KY",
		"country": "US",
		"coord": {
			"lon": -85.221069,
			"lat": 38.574509
		}
	},
	{
		"id": 4305295,
		"name": "Providence",
		"state": "KY",
		"country": "US",
		"coord": {
			"lon": -87.762787,
			"lat": 37.397541
		}
	},
	{
		"id": 4305364,
		"name": "Pulaski County",
		"state": "KY",
		"country": "US",
		"coord": {
			"lon": -84.599937,
			"lat": 37.116741
		}
	},
	{
		"id": 4305500,
		"name": "Raceland",
		"state": "KY",
		"country": "US",
		"coord": {
			"lon": -82.7285,
			"lat": 38.540081
		}
	},
	{
		"id": 4305504,
		"name": "Radcliff",
		"state": "KY",
		"country": "US",
		"coord": {
			"lon": -85.949127,
			"lat": 37.840351
		}
	},
	{
		"id": 4305805,
		"name": "Reidland",
		"state": "KY",
		"country": "US",
		"coord": {
			"lon": -88.531433,
			"lat": 37.017559
		}
	},
	{
		"id": 4305974,
		"name": "Richmond",
		"state": "KY",
		"country": "US",
		"coord": {
			"lon": -84.294647,
			"lat": 37.74786
		}
	},
	{
		"id": 4306693,
		"name": "Rome",
		"state": "KY",
		"country": "US",
		"coord": {
			"lon": -87.180832,
			"lat": 37.721161
		}
	},
	{
		"id": 4306757,
		"name": "Rose Terrace",
		"state": "KY",
		"country": "US",
		"coord": {
			"lon": -85.977188,
			"lat": 37.895069
		}
	},
	{
		"id": 4306972,
		"name": "Russell",
		"state": "KY",
		"country": "US",
		"coord": {
			"lon": -82.697662,
			"lat": 38.5173
		}
	},
	{
		"id": 4307012,
		"name": "Russell Springs",
		"state": "KY",
		"country": "US",
		"coord": {
			"lon": -85.08857,
			"lat": 37.056179
		}
	},
	{
		"id": 4307025,
		"name": "Russellville",
		"state": "KY",
		"country": "US",
		"coord": {
			"lon": -86.887222,
			"lat": 36.845322
		}
	},
	{
		"id": 4307052,
		"name": "Ryland Heights",
		"state": "KY",
		"country": "US",
		"coord": {
			"lon": -84.462997,
			"lat": 38.957561
		}
	},
	{
		"id": 4307238,
		"name": "Saint Matthews",
		"state": "KY",
		"country": "US",
		"coord": {
			"lon": -85.655792,
			"lat": 38.25285
		}
	},
	{
		"id": 4307275,
		"name": "Saint Regis Park",
		"state": "KY",
		"country": "US",
		"coord": {
			"lon": -85.616631,
			"lat": 38.226742
		}
	},
	{
		"id": 4307447,
		"name": "Salyersville",
		"state": "KY",
		"country": "US",
		"coord": {
			"lon": -83.068779,
			"lat": 37.75259
		}
	},
	{
		"id": 4307616,
		"name": "Sandy Hook",
		"state": "KY",
		"country": "US",
		"coord": {
			"lon": -83.126282,
			"lat": 38.086472
		}
	},
	{
		"id": 4307808,
		"name": "Scott County",
		"state": "KY",
		"country": "US",
		"coord": {
			"lon": -84.566612,
			"lat": 38.300072
		}
	},
	{
		"id": 4307837,
		"name": "Scottsville",
		"state": "KY",
		"country": "US",
		"coord": {
			"lon": -86.190536,
			"lat": 36.75338
		}
	},
	{
		"id": 4307879,
		"name": "Sebree",
		"state": "KY",
		"country": "US",
		"coord": {
			"lon": -87.528618,
			"lat": 37.606991
		}
	},
	{
		"id": 4308122,
		"name": "Shelbyville",
		"state": "KY",
		"country": "US",
		"coord": {
			"lon": -85.223572,
			"lat": 38.212009
		}
	},
	{
		"id": 4308163,
		"name": "Shepherdsville",
		"state": "KY",
		"country": "US",
		"coord": {
			"lon": -85.71579,
			"lat": 37.9884
		}
	},
	{
		"id": 4308225,
		"name": "Shively",
		"state": "KY",
		"country": "US",
		"coord": {
			"lon": -85.822739,
			"lat": 38.200069
		}
	},
	{
		"id": 4308401,
		"name": "Silver Grove",
		"state": "KY",
		"country": "US",
		"coord": {
			"lon": -84.390221,
			"lat": 39.034512
		}
	},
	{
		"id": 4308453,
		"name": "Simpsonville",
		"state": "KY",
		"country": "US",
		"coord": {
			"lon": -85.355232,
			"lat": 38.222569
		}
	},
	{
		"id": 4308633,
		"name": "Slater",
		"state": "KY",
		"country": "US",
		"coord": {
			"lon": -88.989227,
			"lat": 37.016441
		}
	},
	{
		"id": 4308835,
		"name": "Smithland",
		"state": "KY",
		"country": "US",
		"coord": {
			"lon": -88.403374,
			"lat": 37.138939
		}
	},
	{
		"id": 4308922,
		"name": "Somerset",
		"state": "KY",
		"country": "US",
		"coord": {
			"lon": -84.604111,
			"lat": 37.092018
		}
	},
	{
		"id": 4309076,
		"name": "South Shore",
		"state": "KY",
		"country": "US",
		"coord": {
			"lon": -82.958229,
			"lat": 38.720909
		}
	},
	{
		"id": 4309097,
		"name": "Southgate",
		"state": "KY",
		"country": "US",
		"coord": {
			"lon": -84.472717,
			"lat": 39.071999
		}
	},
	{
		"id": 4309140,
		"name": "Sparksville",
		"state": "KY",
		"country": "US",
		"coord": {
			"lon": -85.401909,
			"lat": 37.008389
		}
	},
	{
		"id": 4309329,
		"name": "Springfield",
		"state": "KY",
		"country": "US",
		"coord": {
			"lon": -85.222183,
			"lat": 37.685341
		}
	},
	{
		"id": 4309414,
		"name": "Saint Dennis",
		"state": "KY",
		"country": "US",
		"coord": {
			"lon": -85.845802,
			"lat": 38.1884
		}
	},
	{
		"id": 4309487,
		"name": "Stanford",
		"state": "KY",
		"country": "US",
		"coord": {
			"lon": -84.661888,
			"lat": 37.531189
		}
	},
	{
		"id": 4309498,
		"name": "Stanton",
		"state": "KY",
		"country": "US",
		"coord": {
			"lon": -83.858253,
			"lat": 37.845638
		}
	},
	{
		"id": 4309559,
		"name": "Stearns",
		"state": "KY",
		"country": "US",
		"coord": {
			"lon": -84.47744,
			"lat": 36.698971
		}
	},
	{
		"id": 4310030,
		"name": "Sturgis",
		"state": "KY",
		"country": "US",
		"coord": {
			"lon": -87.98391,
			"lat": 37.546711
		}
	},
	{
		"id": 4310411,
		"name": "Sylvania",
		"state": "KY",
		"country": "US",
		"coord": {
			"lon": -85.87413,
			"lat": 38.157009
		}
	},
	{
		"id": 4310616,
		"name": "Taylor Mill",
		"state": "KY",
		"country": "US",
		"coord": {
			"lon": -84.49633,
			"lat": 38.997559
		}
	},
	{
		"id": 4310638,
		"name": "Taylorsville",
		"state": "KY",
		"country": "US",
		"coord": {
			"lon": -85.342453,
			"lat": 38.031731
		}
	},
	{
		"id": 4310988,
		"name": "Todd County",
		"state": "KY",
		"country": "US",
		"coord": {
			"lon": -87.133331,
			"lat": 36.766708
		}
	},
	{
		"id": 4311035,
		"name": "Tompkinsville",
		"state": "KY",
		"country": "US",
		"coord": {
			"lon": -85.691643,
			"lat": 36.702278
		}
	},
	{
		"id": 4311646,
		"name": "Union",
		"state": "KY",
		"country": "US",
		"coord": {
			"lon": -84.680496,
			"lat": 38.9459
		}
	},
	{
		"id": 4311722,
		"name": "Uniontown",
		"state": "KY",
		"country": "US",
		"coord": {
			"lon": -87.93058,
			"lat": 37.775318
		}
	},
	{
		"id": 4311953,
		"name": "Van",
		"state": "KY",
		"country": "US",
		"coord": {
			"lon": -82.873489,
			"lat": 37.151489
		}
	},
	{
		"id": 4311959,
		"name": "Van Lear",
		"state": "KY",
		"country": "US",
		"coord": {
			"lon": -82.757942,
			"lat": 37.77121
		}
	},
	{
		"id": 4311963,
		"name": "Valley Station",
		"state": "KY",
		"country": "US",
		"coord": {
			"lon": -85.870239,
			"lat": 38.111179
		}
	},
	{
		"id": 4311976,
		"name": "Vanceburg",
		"state": "KY",
		"country": "US",
		"coord": {
			"lon": -83.318802,
			"lat": 38.599239
		}
	},
	{
		"id": 4311983,
		"name": "Vandetta",
		"state": "KY",
		"country": "US",
		"coord": {
			"lon": -87.425278,
			"lat": 37.451431
		}
	},
	{
		"id": 4312051,
		"name": "Verona",
		"state": "KY",
		"country": "US",
		"coord": {
			"lon": -84.660782,
			"lat": 38.818401
		}
	},
	{
		"id": 4312057,
		"name": "Versailles",
		"state": "KY",
		"country": "US",
		"coord": {
			"lon": -84.72995,
			"lat": 38.052582
		}
	},
	{
		"id": 4312088,
		"name": "Villa Hills",
		"state": "KY",
		"country": "US",
		"coord": {
			"lon": -84.593002,
			"lat": 39.063389
		}
	},
	{
		"id": 4312096,
		"name": "Vine Grove",
		"state": "KY",
		"country": "US",
		"coord": {
			"lon": -85.981354,
			"lat": 37.81007
		}
	},
	{
		"id": 4312671,
		"name": "Walton",
		"state": "KY",
		"country": "US",
		"coord": {
			"lon": -84.610222,
			"lat": 38.875622
		}
	},
	{
		"id": 4312732,
		"name": "Warren County",
		"state": "KY",
		"country": "US",
		"coord": {
			"lon": -86.399986,
			"lat": 36.983379
		}
	},
	{
		"id": 4312734,
		"name": "Warsaw",
		"state": "KY",
		"country": "US",
		"coord": {
			"lon": -84.901619,
			"lat": 38.783401
		}
	},
	{
		"id": 4312983,
		"name": "West Buechel",
		"state": "KY",
		"country": "US",
		"coord": {
			"lon": -85.663292,
			"lat": 38.19701
		}
	},
	{
		"id": 4313038,
		"name": "West Liberty",
		"state": "KY",
		"country": "US",
		"coord": {
			"lon": -83.259621,
			"lat": 37.921478
		}
	},
	{
		"id": 4313093,
		"name": "Westwood",
		"state": "KY",
		"country": "US",
		"coord": {
			"lon": -82.669884,
			"lat": 38.483139
		}
	},
	{
		"id": 4313346,
		"name": "Whitesburg",
		"state": "KY",
		"country": "US",
		"coord": {
			"lon": -82.826828,
			"lat": 37.118431
		}
	},
	{
		"id": 4313358,
		"name": "Whitley City",
		"state": "KY",
		"country": "US",
		"coord": {
			"lon": -84.47049,
			"lat": 36.723412
		}
	},
	{
		"id": 4313395,
		"name": "Wickliffe",
		"state": "KY",
		"country": "US",
		"coord": {
			"lon": -89.089233,
			"lat": 36.964779
		}
	},
	{
		"id": 4313448,
		"name": "Wilder",
		"state": "KY",
		"country": "US",
		"coord": {
			"lon": -84.486893,
			"lat": 39.05645
		}
	},
	{
		"id": 4313563,
		"name": "Williamsburg",
		"state": "KY",
		"country": "US",
		"coord": {
			"lon": -84.15966,
			"lat": 36.74342
		}
	},
	{
		"id": 4313572,
		"name": "Williamstown",
		"state": "KY",
		"country": "US",
		"coord": {
			"lon": -84.560501,
			"lat": 38.638119
		}
	},
	{
		"id": 4313628,
		"name": "Wilmore",
		"state": "KY",
		"country": "US",
		"coord": {
			"lon": -84.661613,
			"lat": 37.862019
		}
	},
	{
		"id": 4313697,
		"name": "Winchester",
		"state": "KY",
		"country": "US",
		"coord": {
			"lon": -84.179649,
			"lat": 37.990082
		}
	},
	{
		"id": 4313719,
		"name": "Windy Hills",
		"state": "KY",
		"country": "US",
		"coord": {
			"lon": -85.634407,
			"lat": 38.27396
		}
	},
	{
		"id": 4314044,
		"name": "Worthington",
		"state": "KY",
		"country": "US",
		"coord": {
			"lon": -82.724327,
			"lat": 38.548409
		}
	},
	{
		"id": 4314047,
		"name": "Worthington Hills",
		"state": "KY",
		"country": "US",
		"coord": {
			"lon": -85.526901,
			"lat": 38.30896
		}
	},
	{
		"id": 4314051,
		"name": "Worthington",
		"state": "KY",
		"country": "US",
		"coord": {
			"lon": -85.56163,
			"lat": 38.31562
		}
	},
	{
		"id": 4314295,
		"name": "Abbeville",
		"state": "LA",
		"country": "US",
		"coord": {
			"lon": -92.134293,
			"lat": 29.974649
		}
	},
	{
		"id": 4314388,
		"name": "Abita Springs",
		"state": "LA",
		"country": "US",
		"coord": {
			"lon": -90.037582,
			"lat": 30.478531
		}
	},
	{
		"id": 4314409,
		"name": "Addis",
		"state": "LA",
		"country": "US",
		"coord": {
			"lon": -91.265388,
			"lat": 30.3538
		}
	},
	{
		"id": 4314498,
		"name": "Albany",
		"state": "LA",
		"country": "US",
		"coord": {
			"lon": -90.582314,
			"lat": 30.50436
		}
	},
	{
		"id": 4314550,
		"name": "Alexandria",
		"state": "LA",
		"country": "US",
		"coord": {
			"lon": -92.445137,
			"lat": 31.311291
		}
	},
	{
		"id": 4314607,
		"name": "Allen Parish",
		"state": "LA",
		"country": "US",
		"coord": {
			"lon": -92.800148,
			"lat": 30.6502
		}
	},
	{
		"id": 4314712,
		"name": "Ama",
		"state": "LA",
		"country": "US",
		"coord": {
			"lon": -90.296471,
			"lat": 29.95215
		}
	},
	{
		"id": 4314724,
		"name": "Amelia",
		"state": "LA",
		"country": "US",
		"coord": {
			"lon": -91.102043,
			"lat": 29.666321
		}
	},
	{
		"id": 4314744,
		"name": "Amite",
		"state": "LA",
		"country": "US",
		"coord": {
			"lon": -90.50898,
			"lat": 30.72657
		}
	},
	{
		"id": 4314956,
		"name": "Arabi",
		"state": "LA",
		"country": "US",
		"coord": {
			"lon": -90.005348,
			"lat": 29.95437
		}
	},
	{
		"id": 4314969,
		"name": "Arcadia",
		"state": "LA",
		"country": "US",
		"coord": {
			"lon": -92.920158,
			"lat": 32.549042
		}
	},
	{
		"id": 4315034,
		"name": "Arnaudville",
		"state": "LA",
		"country": "US",
		"coord": {
			"lon": -91.931511,
			"lat": 30.397699
		}
	},
	{
		"id": 4315067,
		"name": "Ascension Parish",
		"state": "LA",
		"country": "US",
		"coord": {
			"lon": -90.900101,
			"lat": 30.21686
		}
	},
	{
		"id": 4315225,
		"name": "Avondale",
		"state": "LA",
		"country": "US",
		"coord": {
			"lon": -90.20369,
			"lat": 29.912979
		}
	},
	{
		"id": 4315312,
		"name": "Baker",
		"state": "LA",
		"country": "US",
		"coord": {
			"lon": -91.168159,
			"lat": 30.58824
		}
	},
	{
		"id": 4315342,
		"name": "Baldwin",
		"state": "LA",
		"country": "US",
		"coord": {
			"lon": -91.544281,
			"lat": 29.83798
		}
	},
	{
		"id": 4315350,
		"name": "Ball",
		"state": "LA",
		"country": "US",
		"coord": {
			"lon": -92.411797,
			"lat": 31.415461
		}
	},
	{
		"id": 4315392,
		"name": "Banks Springs",
		"state": "LA",
		"country": "US",
		"coord": {
			"lon": -92.092911,
			"lat": 32.0821
		}
	},
	{
		"id": 4315422,
		"name": "Barataria",
		"state": "LA",
		"country": "US",
		"coord": {
			"lon": -90.123688,
			"lat": 29.72327
		}
	},
	{
		"id": 4315514,
		"name": "Basile",
		"state": "LA",
		"country": "US",
		"coord": {
			"lon": -92.59597,
			"lat": 30.485201
		}
	},
	{
		"id": 4315535,
		"name": "Bastrop",
		"state": "LA",
		"country": "US",
		"coord": {
			"lon": -91.872353,
			"lat": 32.756248
		}
	},
	{
		"id": 4315588,
		"name": "Baton Rouge",
		"state": "LA",
		"country": "US",
		"coord": {
			"lon": -91.154549,
			"lat": 30.45075
		}
	},
	{
		"id": 4315611,
		"name": "Bawcomville",
		"state": "LA",
		"country": "US",
		"coord": {
			"lon": -92.167358,
			"lat": 32.470421
		}
	},
	{
		"id": 4315768,
		"name": "Bayou Cane",
		"state": "LA",
		"country": "US",
		"coord": {
			"lon": -90.751198,
			"lat": 29.6241
		}
	},
	{
		"id": 4315845,
		"name": "Bayou Gauche",
		"state": "LA",
		"country": "US",
		"coord": {
			"lon": -90.413139,
			"lat": 29.78743
		}
	},
	{
		"id": 4315955,
		"name": "Bayou Vista",
		"state": "LA",
		"country": "US",
		"coord": {
			"lon": -91.270943,
			"lat": 29.68965
		}
	},
	{
		"id": 4316112,
		"name": "Beauregard Parish",
		"state": "LA",
		"country": "US",
		"coord": {
			"lon": -93.333504,
			"lat": 30.6502
		}
	},
	{
		"id": 4316180,
		"name": "Bedford",
		"state": "LA",
		"country": "US",
		"coord": {
			"lon": -91.015106,
			"lat": 32.240978
		}
	},
	{
		"id": 4316316,
		"name": "Bellaire",
		"state": "LA",
		"country": "US",
		"coord": {
			"lon": -93.673233,
			"lat": 32.487381
		}
	},
	{
		"id": 4316329,
		"name": "Belle Chasse",
		"state": "LA",
		"country": "US",
		"coord": {
			"lon": -89.990631,
			"lat": 29.854931
		}
	},
	{
		"id": 4316362,
		"name": "Belle Rose",
		"state": "LA",
		"country": "US",
		"coord": {
			"lon": -91.041489,
			"lat": 30.05048
		}
	},
	{
		"id": 4316471,
		"name": "Benton",
		"state": "LA",
		"country": "US",
		"coord": {
			"lon": -93.741852,
			"lat": 32.69487
		}
	},
	{
		"id": 4316497,
		"name": "Bernice",
		"state": "LA",
		"country": "US",
		"coord": {
			"lon": -92.657928,
			"lat": 32.82209
		}
	},
	{
		"id": 4316523,
		"name": "Berwick",
		"state": "LA",
		"country": "US",
		"coord": {
			"lon": -91.218987,
			"lat": 29.694651
		}
	},
	{
		"id": 4316721,
		"name": "Bienville Parish",
		"state": "LA",
		"country": "US",
		"coord": {
			"lon": -93.050163,
			"lat": 32.366821
		}
	},
	{
		"id": 4317201,
		"name": "Blanchard",
		"state": "LA",
		"country": "US",
		"coord": {
			"lon": -93.892677,
			"lat": 32.580978
		}
	},
	{
		"id": 4317412,
		"name": "Bogalusa",
		"state": "LA",
		"country": "US",
		"coord": {
			"lon": -89.848686,
			"lat": 30.791019
		}
	},
	{
		"id": 4317639,
		"name": "Bossier City",
		"state": "LA",
		"country": "US",
		"coord": {
			"lon": -93.732117,
			"lat": 32.515991
		}
	},
	{
		"id": 4317649,
		"name": "Bossier Parish",
		"state": "LA",
		"country": "US",
		"coord": {
			"lon": -93.600182,
			"lat": 32.63348
		}
	},
	{
		"id": 4317656,
		"name": "Boston",
		"state": "LA",
		"country": "US",
		"coord": {
			"lon": -92.055679,
			"lat": 29.883261
		}
	},
	{
		"id": 4317709,
		"name": "Bourg",
		"state": "LA",
		"country": "US",
		"coord": {
			"lon": -90.60231,
			"lat": 29.553551
		}
	},
	{
		"id": 4317718,
		"name": "Boutte",
		"state": "LA",
		"country": "US",
		"coord": {
			"lon": -90.388138,
			"lat": 29.90243
		}
	},
	{
		"id": 4317734,
		"name": "Boyce",
		"state": "LA",
		"country": "US",
		"coord": {
			"lon": -92.669312,
			"lat": 31.390459
		}
	},
	{
		"id": 4317801,
		"name": "Breaux Bridge",
		"state": "LA",
		"country": "US",
		"coord": {
			"lon": -91.899277,
			"lat": 30.273529
		}
	},
	{
		"id": 4317864,
		"name": "Bridge City",
		"state": "LA",
		"country": "US",
		"coord": {
			"lon": -90.170067,
			"lat": 29.93326
		}
	},
	{
		"id": 4317985,
		"name": "Broussard",
		"state": "LA",
		"country": "US",
		"coord": {
			"lon": -91.961227,
			"lat": 30.14715
		}
	},
	{
		"id": 4318037,
		"name": "Brownsfield",
		"state": "LA",
		"country": "US",
		"coord": {
			"lon": -91.120659,
			"lat": 30.546579
		}
	},
	{
		"id": 4318055,
		"name": "Brownsville",
		"state": "LA",
		"country": "US",
		"coord": {
			"lon": -92.154297,
			"lat": 32.487091
		}
	},
	{
		"id": 4318163,
		"name": "Brusly",
		"state": "LA",
		"country": "US",
		"coord": {
			"lon": -91.253723,
			"lat": 30.39436
		}
	},
	{
		"id": 4318320,
		"name": "Bunkie",
		"state": "LA",
		"country": "US",
		"coord": {
			"lon": -92.182632,
			"lat": 30.953251
		}
	},
	{
		"id": 4318404,
		"name": "Burrwood (historical)",
		"state": "LA",
		"country": "US",
		"coord": {
			"lon": -89.377548,
			"lat": 28.96829
		}
	},
	{
		"id": 4318532,
		"name": "Caddo Parish",
		"state": "LA",
		"country": "US",
		"coord": {
			"lon": -93.900177,
			"lat": 32.63348
		}
	},
	{
		"id": 4318541,
		"name": "Cade",
		"state": "LA",
		"country": "US",
		"coord": {
			"lon": -91.905403,
			"lat": 30.08742
		}
	},
	{
		"id": 4318583,
		"name": "Calcasieu Parish",
		"state": "LA",
		"country": "US",
		"coord": {
			"lon": -93.350159,
			"lat": 30.23354
		}
	},
	{
		"id": 4318690,
		"name": "Cameron Parish",
		"state": "LA",
		"country": "US",
		"coord": {
			"lon": -93.21682,
			"lat": 29.86688
		}
	},
	{
		"id": 4318695,
		"name": "Cameron",
		"state": "LA",
		"country": "US",
		"coord": {
			"lon": -93.32515,
			"lat": 29.79772
		}
	},
	{
		"id": 4318812,
		"name": "Campti",
		"state": "LA",
		"country": "US",
		"coord": {
			"lon": -93.118217,
			"lat": 31.893499
		}
	},
	{
		"id": 4319030,
		"name": "Carencro",
		"state": "LA",
		"country": "US",
		"coord": {
			"lon": -92.049011,
			"lat": 30.317141
		}
	},
	{
		"id": 4319058,
		"name": "Carlyss",
		"state": "LA",
		"country": "US",
		"coord": {
			"lon": -93.375992,
			"lat": 30.168819
		}
	},
	{
		"id": 4319180,
		"name": "Carville",
		"state": "LA",
		"country": "US",
		"coord": {
			"lon": -91.096207,
			"lat": 30.217421
		}
	},
	{
		"id": 4319261,
		"name": "Catahoula",
		"state": "LA",
		"country": "US",
		"coord": {
			"lon": -91.709,
			"lat": 30.21464
		}
	},
	{
		"id": 4319339,
		"name": "Cecilia",
		"state": "LA",
		"country": "US",
		"coord": {
			"lon": -91.853172,
			"lat": 30.337139
		}
	},
	{
		"id": 4319435,
		"name": "Central",
		"state": "LA",
		"country": "US",
		"coord": {
			"lon": -91.036774,
			"lat": 30.55435
		}
	},
	{
		"id": 4319507,
		"name": "Chackbay",
		"state": "LA",
		"country": "US",
		"coord": {
			"lon": -90.797318,
			"lat": 29.883539
		}
	},
	{
		"id": 4319518,
		"name": "Chalmette",
		"state": "LA",
		"country": "US",
		"coord": {
			"lon": -89.963402,
			"lat": 29.942699
		}
	},
	{
		"id": 4319589,
		"name": "Charenton",
		"state": "LA",
		"country": "US",
		"coord": {
			"lon": -91.525108,
			"lat": 29.88159
		}
	},
	{
		"id": 4319668,
		"name": "Chauvin",
		"state": "LA",
		"country": "US",
		"coord": {
			"lon": -90.595367,
			"lat": 29.438551
		}
	},
	{
		"id": 4319972,
		"name": "Church Point",
		"state": "LA",
		"country": "US",
		"coord": {
			"lon": -92.215134,
			"lat": 30.402981
		}
	},
	{
		"id": 4320107,
		"name": "Claiborne",
		"state": "LA",
		"country": "US",
		"coord": {
			"lon": -92.191803,
			"lat": 32.51598
		}
	},
	{
		"id": 4320154,
		"name": "Clarks",
		"state": "LA",
		"country": "US",
		"coord": {
			"lon": -92.13903,
			"lat": 32.02655
		}
	},
	{
		"id": 4320277,
		"name": "Clinton",
		"state": "LA",
		"country": "US",
		"coord": {
			"lon": -91.015663,
			"lat": 30.86574
		}
	},
	{
		"id": 4320425,
		"name": "Colfax",
		"state": "LA",
		"country": "US",
		"coord": {
			"lon": -92.706818,
			"lat": 31.51906
		}
	},
	{
		"id": 4320492,
		"name": "Columbia",
		"state": "LA",
		"country": "US",
		"coord": {
			"lon": -92.077911,
			"lat": 32.10516
		}
	},
	{
		"id": 4320643,
		"name": "Convent",
		"state": "LA",
		"country": "US",
		"coord": {
			"lon": -90.829819,
			"lat": 30.02076
		}
	},
	{
		"id": 4320871,
		"name": "Cotton Valley",
		"state": "LA",
		"country": "US",
		"coord": {
			"lon": -93.417671,
			"lat": 32.819309
		}
	},
	{
		"id": 4320874,
		"name": "Cottonport",
		"state": "LA",
		"country": "US",
		"coord": {
			"lon": -92.053459,
			"lat": 30.984079
		}
	},
	{
		"id": 4321005,
		"name": "Covington",
		"state": "LA",
		"country": "US",
		"coord": {
			"lon": -90.100906,
			"lat": 30.47547
		}
	},
	{
		"id": 4321014,
		"name": "Coushatta",
		"state": "LA",
		"country": "US",
		"coord": {
			"lon": -93.342117,
			"lat": 32.014881
		}
	},
	{
		"id": 4321310,
		"name": "Crowley",
		"state": "LA",
		"country": "US",
		"coord": {
			"lon": -92.37458,
			"lat": 30.21409
		}
	},
	{
		"id": 4321358,
		"name": "Cullen",
		"state": "LA",
		"country": "US",
		"coord": {
			"lon": -93.450729,
			"lat": 32.969028
		}
	},
	{
		"id": 4321399,
		"name": "Cut Off",
		"state": "LA",
		"country": "US",
		"coord": {
			"lon": -90.338142,
			"lat": 29.542721
		}
	},
	{
		"id": 4321406,
		"name": "Cut-off Junction",
		"state": "LA",
		"country": "US",
		"coord": {
			"lon": -93.803787,
			"lat": 32.436272
		}
	},
	{
		"id": 4321759,
		"name": "De Soto Parish",
		"state": "LA",
		"country": "US",
		"coord": {
			"lon": -93.766853,
			"lat": 32.06683
		}
	},
	{
		"id": 4321770,
		"name": "DeQuincy",
		"state": "LA",
		"country": "US",
		"coord": {
			"lon": -93.43322,
			"lat": 30.45048
		}
	},
	{
		"id": 4321781,
		"name": "DeRidder",
		"state": "LA",
		"country": "US",
		"coord": {
			"lon": -93.289047,
			"lat": 30.84631
		}
	},
	{
		"id": 4321920,
		"name": "Delcambre",
		"state": "LA",
		"country": "US",
		"coord": {
			"lon": -91.988731,
			"lat": 29.948259
		}
	},
	{
		"id": 4321929,
		"name": "Delhi",
		"state": "LA",
		"country": "US",
		"coord": {
			"lon": -91.493172,
			"lat": 32.457642
		}
	},
	{
		"id": 4321988,
		"name": "Denham Springs",
		"state": "LA",
		"country": "US",
		"coord": {
			"lon": -90.956207,
			"lat": 30.48686
		}
	},
	{
		"id": 4322016,
		"name": "Des Allemands",
		"state": "LA",
		"country": "US",
		"coord": {
			"lon": -90.475082,
			"lat": 29.82382
		}
	},
	{
		"id": 4322034,
		"name": "Destrehan",
		"state": "LA",
		"country": "US",
		"coord": {
			"lon": -90.351753,
			"lat": 29.94298
		}
	},
	{
		"id": 4322048,
		"name": "Deville",
		"state": "LA",
		"country": "US",
		"coord": {
			"lon": -92.165413,
			"lat": 31.357401
		}
	},
	{
		"id": 4322811,
		"name": "Donaldsonville",
		"state": "LA",
		"country": "US",
		"coord": {
			"lon": -90.992882,
			"lat": 30.10103
		}
	},
	{
		"id": 4323131,
		"name": "Dulac",
		"state": "LA",
		"country": "US",
		"coord": {
			"lon": -90.713982,
			"lat": 29.38883
		}
	},
	{
		"id": 4323190,
		"name": "Duson",
		"state": "LA",
		"country": "US",
		"coord": {
			"lon": -92.185402,
			"lat": 30.23576
		}
	},
	{
		"id": 4323288,
		"name": "East Baton Rouge Parish",
		"state": "LA",
		"country": "US",
		"coord": {
			"lon": -91.100113,
			"lat": 30.516859
		}
	},
	{
		"id": 4323488,
		"name": "Eastwood",
		"state": "LA",
		"country": "US",
		"coord": {
			"lon": -93.567123,
			"lat": 32.556259
		}
	},
	{
		"id": 4323546,
		"name": "Eden Isle",
		"state": "LA",
		"country": "US",
		"coord": {
			"lon": -89.798668,
			"lat": 30.228531
		}
	},
	{
		"id": 4323551,
		"name": "Edgard",
		"state": "LA",
		"country": "US",
		"coord": {
			"lon": -90.560089,
			"lat": 30.043261
		}
	},
	{
		"id": 4323711,
		"name": "Elmwood",
		"state": "LA",
		"country": "US",
		"coord": {
			"lon": -90.189796,
			"lat": 29.956591
		}
	},
	{
		"id": 4323727,
		"name": "Elton",
		"state": "LA",
		"country": "US",
		"coord": {
			"lon": -92.695702,
			"lat": 30.48131
		}
	},
	{
		"id": 4323842,
		"name": "Erath",
		"state": "LA",
		"country": "US",
		"coord": {
			"lon": -92.035957,
			"lat": 29.95826
		}
	},
	{
		"id": 4323860,
		"name": "Erwinville",
		"state": "LA",
		"country": "US",
		"coord": {
			"lon": -91.40789,
			"lat": 30.531019
		}
	},
	{
		"id": 4323873,
		"name": "Estelle",
		"state": "LA",
		"country": "US",
		"coord": {
			"lon": -90.106743,
			"lat": 29.84576
		}
	},
	{
		"id": 4323900,
		"name": "Eunice",
		"state": "LA",
		"country": "US",
		"coord": {
			"lon": -92.417633,
			"lat": 30.49437
		}
	},
	{
		"id": 4324179,
		"name": "Farmerville",
		"state": "LA",
		"country": "US",
		"coord": {
			"lon": -92.405701,
			"lat": 32.773472
		}
	},
	{
		"id": 4324293,
		"name": "Ferriday",
		"state": "LA",
		"country": "US",
		"coord": {
			"lon": -91.554558,
			"lat": 31.630171
		}
	},
	{
		"id": 4324944,
		"name": "Forest Oak",
		"state": "LA",
		"country": "US",
		"coord": {
			"lon": -93.807961,
			"lat": 32.445992
		}
	},
	{
		"id": 4325018,
		"name": "Fort Polk",
		"state": "LA",
		"country": "US",
		"coord": {
			"lon": -93.205437,
			"lat": 31.046579
		}
	},
	{
		"id": 4325150,
		"name": "Franklin",
		"state": "LA",
		"country": "US",
		"coord": {
			"lon": -91.501503,
			"lat": 29.79604
		}
	},
	{
		"id": 4325158,
		"name": "Franklin Parish",
		"state": "LA",
		"country": "US",
		"coord": {
			"lon": -91.683456,
			"lat": 32.15015
		}
	},
	{
		"id": 4325165,
		"name": "Franklinton",
		"state": "LA",
		"country": "US",
		"coord": {
			"lon": -90.153137,
			"lat": 30.84713
		}
	},
	{
		"id": 4325242,
		"name": "French Settlement",
		"state": "LA",
		"country": "US",
		"coord": {
			"lon": -90.795097,
			"lat": 30.2952
		}
	},
	{
		"id": 4325394,
		"name": "Galbraith",
		"state": "LA",
		"country": "US",
		"coord": {
			"lon": -92.812378,
			"lat": 31.49128
		}
	},
	{
		"id": 4325424,
		"name": "Galliano",
		"state": "LA",
		"country": "US",
		"coord": {
			"lon": -90.299248,
			"lat": 29.44216
		}
	},
	{
		"id": 4325507,
		"name": "Gardere",
		"state": "LA",
		"country": "US",
		"coord": {
			"lon": -91.140106,
			"lat": 30.345751
		}
	},
	{
		"id": 4325516,
		"name": "Garyville",
		"state": "LA",
		"country": "US",
		"coord": {
			"lon": -90.619263,
			"lat": 30.05604
		}
	},
	{
		"id": 4325803,
		"name": "Glenmora",
		"state": "LA",
		"country": "US",
		"coord": {
			"lon": -92.585136,
			"lat": 30.97658
		}
	},
	{
		"id": 4325859,
		"name": "Golden Meadow",
		"state": "LA",
		"country": "US",
		"coord": {
			"lon": -90.260078,
			"lat": 29.37911
		}
	},
	{
		"id": 4325889,
		"name": "Gonzales",
		"state": "LA",
		"country": "US",
		"coord": {
			"lon": -90.920097,
			"lat": 30.238529
		}
	},
	{
		"id": 4326074,
		"name": "Grambling",
		"state": "LA",
		"country": "US",
		"coord": {
			"lon": -92.714043,
			"lat": 32.527649
		}
	},
	{
		"id": 4326081,
		"name": "Gramercy",
		"state": "LA",
		"country": "US",
		"coord": {
			"lon": -90.689812,
			"lat": 30.047421
		}
	},
	{
		"id": 4326198,
		"name": "Grand Isle",
		"state": "LA",
		"country": "US",
		"coord": {
			"lon": -89.987289,
			"lat": 29.23662
		}
	},
	{
		"id": 4326211,
		"name": "Grand Point",
		"state": "LA",
		"country": "US",
		"coord": {
			"lon": -90.753433,
			"lat": 30.06131
		}
	},
	{
		"id": 4326320,
		"name": "Gray",
		"state": "LA",
		"country": "US",
		"coord": {
			"lon": -90.786484,
			"lat": 29.69771
		}
	},
	{
		"id": 4326477,
		"name": "Greenacres Place",
		"state": "LA",
		"country": "US",
		"coord": {
			"lon": -93.716011,
			"lat": 32.569592
		}
	},
	{
		"id": 4326511,
		"name": "Greensburg",
		"state": "LA",
		"country": "US",
		"coord": {
			"lon": -90.671761,
			"lat": 30.83074
		}
	},
	{
		"id": 4326533,
		"name": "Greenwood",
		"state": "LA",
		"country": "US",
		"coord": {
			"lon": -93.972961,
			"lat": 32.442928
		}
	},
	{
		"id": 4326534,
		"name": "Greenwood",
		"state": "LA",
		"country": "US",
		"coord": {
			"lon": -91.106773,
			"lat": 30.54491
		}
	},
	{
		"id": 4326575,
		"name": "Gretna",
		"state": "LA",
		"country": "US",
		"coord": {
			"lon": -90.053963,
			"lat": 29.91465
		}
	},
	{
		"id": 4326636,
		"name": "Gueydan",
		"state": "LA",
		"country": "US",
		"coord": {
			"lon": -92.508469,
			"lat": 30.026039
		}
	},
	{
		"id": 4326758,
		"name": "Hackberry",
		"state": "LA",
		"country": "US",
		"coord": {
			"lon": -93.342102,
			"lat": 29.99605
		}
	},
	{
		"id": 4326799,
		"name": "Hahnville",
		"state": "LA",
		"country": "US",
		"coord": {
			"lon": -90.408974,
			"lat": 29.976589
		}
	},
	{
		"id": 4326868,
		"name": "Hammond",
		"state": "LA",
		"country": "US",
		"coord": {
			"lon": -90.461197,
			"lat": 30.50436
		}
	},
	{
		"id": 4326916,
		"name": "Harahan",
		"state": "LA",
		"country": "US",
		"coord": {
			"lon": -90.203133,
			"lat": 29.940479
		}
	},
	{
		"id": 4327024,
		"name": "Harrisonburg",
		"state": "LA",
		"country": "US",
		"coord": {
			"lon": -91.821518,
			"lat": 31.77211
		}
	},
	{
		"id": 4327047,
		"name": "Harvey",
		"state": "LA",
		"country": "US",
		"coord": {
			"lon": -90.077293,
			"lat": 29.90354
		}
	},
	{
		"id": 4327084,
		"name": "Haughton",
		"state": "LA",
		"country": "US",
		"coord": {
			"lon": -93.504059,
			"lat": 32.53265
		}
	},
	{
		"id": 4327129,
		"name": "Haynesville",
		"state": "LA",
		"country": "US",
		"coord": {
			"lon": -93.14016,
			"lat": 32.962078
		}
	},
	{
		"id": 4327245,
		"name": "Henderson",
		"state": "LA",
		"country": "US",
		"coord": {
			"lon": -91.79039,
			"lat": 30.31325
		}
	},
	{
		"id": 4327698,
		"name": "Holmwood",
		"state": "LA",
		"country": "US",
		"coord": {
			"lon": -93.079872,
			"lat": 30.12604
		}
	},
	{
		"id": 4327785,
		"name": "Homer",
		"state": "LA",
		"country": "US",
		"coord": {
			"lon": -93.055717,
			"lat": 32.791809
		}
	},
	{
		"id": 4328010,
		"name": "Houma",
		"state": "LA",
		"country": "US",
		"coord": {
			"lon": -90.719528,
			"lat": 29.59577
		}
	},
	{
		"id": 4328044,
		"name": "Howell Community Farms",
		"state": "LA",
		"country": "US",
		"coord": {
			"lon": -91.151772,
			"lat": 30.52297
		}
	},
	{
		"id": 4328254,
		"name": "Iberia Parish",
		"state": "LA",
		"country": "US",
		"coord": {
			"lon": -91.750671,
			"lat": 29.950199
		}
	},
	{
		"id": 4328319,
		"name": "Independence",
		"state": "LA",
		"country": "US",
		"coord": {
			"lon": -90.500923,
			"lat": 30.635469
		}
	},
	{
		"id": 4328435,
		"name": "Inniswold",
		"state": "LA",
		"country": "US",
		"coord": {
			"lon": -91.083443,
			"lat": 30.404909
		}
	},
	{
		"id": 4328671,
		"name": "Iota",
		"state": "LA",
		"country": "US",
		"coord": {
			"lon": -92.495689,
			"lat": 30.33131
		}
	},
	{
		"id": 4328676,
		"name": "Iowa",
		"state": "LA",
		"country": "US",
		"coord": {
			"lon": -93.013763,
			"lat": 30.23687
		}
	},
	{
		"id": 4328824,
		"name": "Jackson",
		"state": "LA",
		"country": "US",
		"coord": {
			"lon": -91.217613,
			"lat": 30.8374
		}
	},
	{
		"id": 4328854,
		"name": "Jackson Parish",
		"state": "LA",
		"country": "US",
		"coord": {
			"lon": -92.550148,
			"lat": 32.333488
		}
	},
	{
		"id": 4328931,
		"name": "Jean Lafitte",
		"state": "LA",
		"country": "US",
		"coord": {
			"lon": -90.12674,
			"lat": 29.73604
		}
	},
	{
		"id": 4328952,
		"name": "Jeanerette",
		"state": "LA",
		"country": "US",
		"coord": {
			"lon": -91.663452,
			"lat": 29.911039
		}
	},
	{
		"id": 4328965,
		"name": "Jefferson Davis Parish",
		"state": "LA",
		"country": "US",
		"coord": {
			"lon": -92.833481,
			"lat": 30.2516
		}
	},
	{
		"id": 4328973,
		"name": "Jefferson",
		"state": "LA",
		"country": "US",
		"coord": {
			"lon": -90.15313,
			"lat": 29.96604
		}
	},
	{
		"id": 4328978,
		"name": "Jefferson Parish",
		"state": "LA",
		"country": "US",
		"coord": {
			"lon": -90.100067,
			"lat": 29.73354
		}
	},
	{
		"id": 4328999,
		"name": "Jena (historical)",
		"state": "LA",
		"country": "US",
		"coord": {
			"lon": -90.433418,
			"lat": 30.412689
		}
	},
	{
		"id": 4329021,
		"name": "Jena",
		"state": "LA",
		"country": "US",
		"coord": {
			"lon": -92.133743,
			"lat": 31.683229
		}
	},
	{
		"id": 4329037,
		"name": "Jennings",
		"state": "LA",
		"country": "US",
		"coord": {
			"lon": -92.657082,
			"lat": 30.222429
		}
	},
	{
		"id": 4329308,
		"name": "Jonesboro",
		"state": "LA",
		"country": "US",
		"coord": {
			"lon": -92.715988,
			"lat": 32.241268
		}
	},
	{
		"id": 4329317,
		"name": "Jonesville",
		"state": "LA",
		"country": "US",
		"coord": {
			"lon": -91.818176,
			"lat": 31.62656
		}
	},
	{
		"id": 4329654,
		"name": "Kaplan",
		"state": "LA",
		"country": "US",
		"coord": {
			"lon": -92.284851,
			"lat": 29.99798
		}
	},
	{
		"id": 4329753,
		"name": "Kenner",
		"state": "LA",
		"country": "US",
		"coord": {
			"lon": -90.241737,
			"lat": 29.994089
		}
	},
	{
		"id": 4329775,
		"name": "Kentwood",
		"state": "LA",
		"country": "US",
		"coord": {
			"lon": -90.50898,
			"lat": 30.93824
		}
	},
	{
		"id": 4329820,
		"name": "Killian",
		"state": "LA",
		"country": "US",
		"coord": {
			"lon": -90.586197,
			"lat": 30.35881
		}
	},
	{
		"id": 4329849,
		"name": "Kinder",
		"state": "LA",
		"country": "US",
		"coord": {
			"lon": -92.8507,
			"lat": 30.485479
		}
	},
	{
		"id": 4330019,
		"name": "Krotz Springs",
		"state": "LA",
		"country": "US",
		"coord": {
			"lon": -91.752892,
			"lat": 30.53686
		}
	},
	{
		"id": 4330088,
		"name": "Labadieville",
		"state": "LA",
		"country": "US",
		"coord": {
			"lon": -90.956207,
			"lat": 29.837429
		}
	},
	{
		"id": 4330126,
		"name": "Lacombe",
		"state": "LA",
		"country": "US",
		"coord": {
			"lon": -89.94313,
			"lat": 30.31353
		}
	},
	{
		"id": 4330145,
		"name": "Lafayette",
		"state": "LA",
		"country": "US",
		"coord": {
			"lon": -92.019836,
			"lat": 30.224091
		}
	},
	{
		"id": 4330160,
		"name": "Lafayette Parish",
		"state": "LA",
		"country": "US",
		"coord": {
			"lon": -92.066788,
			"lat": 30.23353
		}
	},
	{
		"id": 4330172,
		"name": "Lafitte",
		"state": "LA",
		"country": "US",
		"coord": {
			"lon": -90.108414,
			"lat": 29.66688
		}
	},
	{
		"id": 4330185,
		"name": "Lafourche Parish",
		"state": "LA",
		"country": "US",
		"coord": {
			"lon": -90.383408,
			"lat": 29.566879
		}
	},
	{
		"id": 4330209,
		"name": "Lake Arthur",
		"state": "LA",
		"country": "US",
		"coord": {
			"lon": -92.671532,
			"lat": 30.080759
		}
	},
	{
		"id": 4330236,
		"name": "Lake Charles",
		"state": "LA",
		"country": "US",
		"coord": {
			"lon": -93.204399,
			"lat": 30.213091
		}
	},
	{
		"id": 4330331,
		"name": "Lake Providence",
		"state": "LA",
		"country": "US",
		"coord": {
			"lon": -91.170113,
			"lat": 32.804298
		}
	},
	{
		"id": 4330389,
		"name": "Lakeshore",
		"state": "LA",
		"country": "US",
		"coord": {
			"lon": -92.029579,
			"lat": 32.535141
		}
	},
	{
		"id": 4330517,
		"name": "Lapine",
		"state": "LA",
		"country": "US",
		"coord": {
			"lon": -92.25264,
			"lat": 32.389591
		}
	},
	{
		"id": 4330525,
		"name": "Laplace",
		"state": "LA",
		"country": "US",
		"coord": {
			"lon": -90.48008,
			"lat": 30.066589
		}
	},
	{
		"id": 4330541,
		"name": "Larose",
		"state": "LA",
		"country": "US",
		"coord": {
			"lon": -90.381752,
			"lat": 29.572439
		}
	},
	{
		"id": 4330633,
		"name": "Lawtell",
		"state": "LA",
		"country": "US",
		"coord": {
			"lon": -92.184853,
			"lat": 30.51853
		}
	},
	{
		"id": 4330701,
		"name": "Lecompte",
		"state": "LA",
		"country": "US",
		"coord": {
			"lon": -92.400414,
			"lat": 31.094629
		}
	},
	{
		"id": 4330740,
		"name": "Leesville",
		"state": "LA",
		"country": "US",
		"coord": {
			"lon": -93.261002,
			"lat": 31.14352
		}
	},
	{
		"id": 4330751,
		"name": "Leeville",
		"state": "LA",
		"country": "US",
		"coord": {
			"lon": -90.207581,
			"lat": 29.247999
		}
	},
	{
		"id": 4330809,
		"name": "Leonville",
		"state": "LA",
		"country": "US",
		"coord": {
			"lon": -91.978447,
			"lat": 30.47047
		}
	},
	{
		"id": 4330983,
		"name": "Lincoln Parish",
		"state": "LA",
		"country": "US",
		"coord": {
			"lon": -92.650146,
			"lat": 32.61681
		}
	},
	{
		"id": 4331485,
		"name": "Livingston",
		"state": "LA",
		"country": "US",
		"coord": {
			"lon": -90.747871,
			"lat": 30.502131
		}
	},
	{
		"id": 4331493,
		"name": "Livonia",
		"state": "LA",
		"country": "US",
		"coord": {
			"lon": -91.555939,
			"lat": 30.55908
		}
	},
	{
		"id": 4331530,
		"name": "Lockport",
		"state": "LA",
		"country": "US",
		"coord": {
			"lon": -90.539253,
			"lat": 29.646049
		}
	},
	{
		"id": 4331531,
		"name": "Lockport Heights",
		"state": "LA",
		"country": "US",
		"coord": {
			"lon": -90.546471,
			"lat": 29.65049
		}
	},
	{
		"id": 4331567,
		"name": "Logansport",
		"state": "LA",
		"country": "US",
		"coord": {
			"lon": -93.997971,
			"lat": 31.975439
		}
	},
	{
		"id": 4331765,
		"name": "Longstraw",
		"state": "LA",
		"country": "US",
		"coord": {
			"lon": -92.549042,
			"lat": 32.495979
		}
	},
	{
		"id": 4331987,
		"name": "Louisiana",
		"state": "LA",
		"country": "US",
		"coord": {
			"lon": -92.000397,
			"lat": 31.000469
		}
	},
	{
		"id": 4332064,
		"name": "Loyd",
		"state": "LA",
		"country": "US",
		"coord": {
			"lon": -92.358467,
			"lat": 31.04463
		}
	},
	{
		"id": 4332109,
		"name": "Luling",
		"state": "LA",
		"country": "US",
		"coord": {
			"lon": -90.36647,
			"lat": 29.93215
		}
	},
	{
		"id": 4332152,
		"name": "Lutcher",
		"state": "LA",
		"country": "US",
		"coord": {
			"lon": -90.698982,
			"lat": 30.04048
		}
	},
	{
		"id": 4332258,
		"name": "Madison Parish",
		"state": "LA",
		"country": "US",
		"coord": {
			"lon": -91.251503,
			"lat": 32.36681
		}
	},
	{
		"id": 4332432,
		"name": "Mamou",
		"state": "LA",
		"country": "US",
		"coord": {
			"lon": -92.419296,
			"lat": 30.63381
		}
	},
	{
		"id": 4332455,
		"name": "Mandeville",
		"state": "LA",
		"country": "US",
		"coord": {
			"lon": -90.065628,
			"lat": 30.35825
		}
	},
	{
		"id": 4332494,
		"name": "Mansfield",
		"state": "LA",
		"country": "US",
		"coord": {
			"lon": -93.70018,
			"lat": 32.037659
		}
	},
	{
		"id": 4332507,
		"name": "Mansura",
		"state": "LA",
		"country": "US",
		"coord": {
			"lon": -92.049011,
			"lat": 31.05797
		}
	},
	{
		"id": 4332518,
		"name": "Many",
		"state": "LA",
		"country": "US",
		"coord": {
			"lon": -93.484062,
			"lat": 31.568781
		}
	},
	{
		"id": 4332582,
		"name": "Maringouin",
		"state": "LA",
		"country": "US",
		"coord": {
			"lon": -91.519547,
			"lat": 30.491301
		}
	},
	{
		"id": 4332604,
		"name": "Marksville",
		"state": "LA",
		"country": "US",
		"coord": {
			"lon": -92.066238,
			"lat": 31.12797
		}
	},
	{
		"id": 4332628,
		"name": "Marrero",
		"state": "LA",
		"country": "US",
		"coord": {
			"lon": -90.100349,
			"lat": 29.89937
		}
	},
	{
		"id": 4332788,
		"name": "Mathews",
		"state": "LA",
		"country": "US",
		"coord": {
			"lon": -90.546753,
			"lat": 29.686319
		}
	},
	{
		"id": 4332899,
		"name": "McDade",
		"state": "LA",
		"country": "US",
		"coord": {
			"lon": -93.528229,
			"lat": 32.32349
		}
	},
	{
		"id": 4333095,
		"name": "Melville",
		"state": "LA",
		"country": "US",
		"coord": {
			"lon": -91.744003,
			"lat": 30.69297
		}
	},
	{
		"id": 4333126,
		"name": "Meraux",
		"state": "LA",
		"country": "US",
		"coord": {
			"lon": -89.949791,
			"lat": 29.93298
		}
	},
	{
		"id": 4333161,
		"name": "Merrydale",
		"state": "LA",
		"country": "US",
		"coord": {
			"lon": -91.108437,
			"lat": 30.501301
		}
	},
	{
		"id": 4333163,
		"name": "Merryville",
		"state": "LA",
		"country": "US",
		"coord": {
			"lon": -93.540451,
			"lat": 30.75437
		}
	},
	{
		"id": 4333177,
		"name": "Metairie",
		"state": "LA",
		"country": "US",
		"coord": {
			"lon": -90.152847,
			"lat": 29.984091
		}
	},
	{
		"id": 4333190,
		"name": "Metairie Terrace",
		"state": "LA",
		"country": "US",
		"coord": {
			"lon": -90.163963,
			"lat": 29.97854
		}
	},
	{
		"id": 4333277,
		"name": "Midway",
		"state": "LA",
		"country": "US",
		"coord": {
			"lon": -92.152359,
			"lat": 31.69212
		}
	},
	{
		"id": 4333500,
		"name": "Milton",
		"state": "LA",
		"country": "US",
		"coord": {
			"lon": -92.076508,
			"lat": 30.103809
		}
	},
	{
		"id": 4333533,
		"name": "Minden",
		"state": "LA",
		"country": "US",
		"coord": {
			"lon": -93.286842,
			"lat": 32.615429
		}
	},
	{
		"id": 4333548,
		"name": "Minorca",
		"state": "LA",
		"country": "US",
		"coord": {
			"lon": -91.481781,
			"lat": 31.57933
		}
	},
	{
		"id": 4333669,
		"name": "Monroe",
		"state": "LA",
		"country": "US",
		"coord": {
			"lon": -92.119301,
			"lat": 32.509312
		}
	},
	{
		"id": 4333694,
		"name": "Montegut",
		"state": "LA",
		"country": "US",
		"coord": {
			"lon": -90.502029,
			"lat": 30.070761
		}
	},
	{
		"id": 4333695,
		"name": "Montegut",
		"state": "LA",
		"country": "US",
		"coord": {
			"lon": -90.55703,
			"lat": 29.47439
		}
	},
	{
		"id": 4333718,
		"name": "Monticello",
		"state": "LA",
		"country": "US",
		"coord": {
			"lon": -91.048721,
			"lat": 30.48908
		}
	},
	{
		"id": 4333725,
		"name": "Montz",
		"state": "LA",
		"country": "US",
		"coord": {
			"lon": -90.468689,
			"lat": 30.00687
		}
	},
	{
		"id": 4333789,
		"name": "Morehouse Parish",
		"state": "LA",
		"country": "US",
		"coord": {
			"lon": -91.800133,
			"lat": 32.800129
		}
	},
	{
		"id": 4333811,
		"name": "Morgan City",
		"state": "LA",
		"country": "US",
		"coord": {
			"lon": -91.206772,
			"lat": 29.699369
		}
	},
	{
		"id": 4333961,
		"name": "Moss Bluff",
		"state": "LA",
		"country": "US",
		"coord": {
			"lon": -93.190712,
			"lat": 30.3027
		}
	},
	{
		"id": 4334696,
		"name": "Napoleonville",
		"state": "LA",
		"country": "US",
		"coord": {
			"lon": -91.024818,
			"lat": 29.940479
		}
	},
	{
		"id": 4334706,
		"name": "Natalbany",
		"state": "LA",
		"country": "US",
		"coord": {
			"lon": -90.48481,
			"lat": 30.546301
		}
	},
	{
		"id": 4334720,
		"name": "Natchitoches",
		"state": "LA",
		"country": "US",
		"coord": {
			"lon": -93.086273,
			"lat": 31.760719
		}
	},
	{
		"id": 4334734,
		"name": "Natchitoches Parish",
		"state": "LA",
		"country": "US",
		"coord": {
			"lon": -93.133499,
			"lat": 31.76683
		}
	},
	{
		"id": 4334971,
		"name": "New Iberia",
		"state": "LA",
		"country": "US",
		"coord": {
			"lon": -91.818733,
			"lat": 30.00354
		}
	},
	{
		"id": 4335024,
		"name": "New Llano",
		"state": "LA",
		"country": "US",
		"coord": {
			"lon": -93.271553,
			"lat": 31.11491
		}
	},
	{
		"id": 4335045,
		"name": "New Orleans",
		"state": "LA",
		"country": "US",
		"coord": {
			"lon": -90.075073,
			"lat": 29.954651
		}
	},
	{
		"id": 4335096,
		"name": "New Roads",
		"state": "LA",
		"country": "US",
		"coord": {
			"lon": -91.436218,
			"lat": 30.701571
		}
	},
	{
		"id": 4335123,
		"name": "New Sarpy",
		"state": "LA",
		"country": "US",
		"coord": {
			"lon": -90.387863,
			"lat": 29.97798
		}
	},
	{
		"id": 4335212,
		"name": "Newellton",
		"state": "LA",
		"country": "US",
		"coord": {
			"lon": -91.240952,
			"lat": 32.072651
		}
	},
	{
		"id": 4335326,
		"name": "Norco",
		"state": "LA",
		"country": "US",
		"coord": {
			"lon": -90.4123,
			"lat": 29.99909
		}
	},
	{
		"id": 4335535,
		"name": "North Vacherie",
		"state": "LA",
		"country": "US",
		"coord": {
			"lon": -90.70565,
			"lat": 29.99687
		}
	},
	{
		"id": 4335690,
		"name": "Oak Grove",
		"state": "LA",
		"country": "US",
		"coord": {
			"lon": -91.388451,
			"lat": 32.860958
		}
	},
	{
		"id": 4335754,
		"name": "Oak Hills Place",
		"state": "LA",
		"country": "US",
		"coord": {
			"lon": -91.087601,
			"lat": 30.359921
		}
	},
	{
		"id": 4335796,
		"name": "Oakdale",
		"state": "LA",
		"country": "US",
		"coord": {
			"lon": -92.660423,
			"lat": 30.816031
		}
	},
	{
		"id": 4335797,
		"name": "Oakdale",
		"state": "",
		"country": "US",
		"coord": {
			"lon": -92.621529,
			"lat": 30.80547
		}
	},
	{
		"id": 4335887,
		"name": "Oberlin",
		"state": "LA",
		"country": "US",
		"coord": {
			"lon": -92.76265,
			"lat": 30.620199
		}
	},
	{
		"id": 4335921,
		"name": "Oil City",
		"state": "LA",
		"country": "US",
		"coord": {
			"lon": -93.971573,
			"lat": 32.74403
		}
	},
	{
		"id": 4335963,
		"name": "Old Jefferson",
		"state": "LA",
		"country": "US",
		"coord": {
			"lon": -91.017052,
			"lat": 30.38269
		}
	},
	{
		"id": 4336092,
		"name": "Olla",
		"state": "LA",
		"country": "US",
		"coord": {
			"lon": -92.243187,
			"lat": 31.902941
		}
	},
	{
		"id": 4336153,
		"name": "Opelousas",
		"state": "LA",
		"country": "US",
		"coord": {
			"lon": -92.081512,
			"lat": 30.533529
		}
	},
	{
		"id": 4336191,
		"name": "Orleans Parish",
		"state": "LA",
		"country": "US",
		"coord": {
			"lon": -89.950073,
			"lat": 30.033529
		}
	},
	{
		"id": 4336206,
		"name": "Osceola",
		"state": "LA",
		"country": "US",
		"coord": {
			"lon": -90.311478,
			"lat": 30.65074
		}
	},
	{
		"id": 4336209,
		"name": "Ossun",
		"state": "LA",
		"country": "US",
		"coord": {
			"lon": -92.11235,
			"lat": 30.27603
		}
	},
	{
		"id": 4336232,
		"name": "Ouachita Parish",
		"state": "LA",
		"country": "US",
		"coord": {
			"lon": -92.150139,
			"lat": 32.483479
		}
	},
	{
		"id": 4336492,
		"name": "Paradis",
		"state": "LA",
		"country": "US",
		"coord": {
			"lon": -90.433968,
			"lat": 29.87965
		}
	},
	{
		"id": 4336646,
		"name": "Patterson",
		"state": "LA",
		"country": "US",
		"coord": {
			"lon": -91.302048,
			"lat": 29.69326
		}
	},
	{
		"id": 4336678,
		"name": "Paulina",
		"state": "LA",
		"country": "US",
		"coord": {
			"lon": -90.71315,
			"lat": 30.02631
		}
	},
	{
		"id": 4336717,
		"name": "Pearl River",
		"state": "LA",
		"country": "US",
		"coord": {
			"lon": -89.748398,
			"lat": 30.37603
		}
	},
	{
		"id": 4336756,
		"name": "Pecan Park",
		"state": "LA",
		"country": "US",
		"coord": {
			"lon": -93.684341,
			"lat": 32.491821
		}
	},
	{
		"id": 4337049,
		"name": "Pierre Part",
		"state": "LA",
		"country": "US",
		"coord": {
			"lon": -91.203163,
			"lat": 29.9652
		}
	},
	{
		"id": 4337142,
		"name": "Pilottown",
		"state": "LA",
		"country": "US",
		"coord": {
			"lon": -89.257553,
			"lat": 29.18161
		}
	},
	{
		"id": 4337272,
		"name": "Pine Prairie",
		"state": "LA",
		"country": "US",
		"coord": {
			"lon": -92.425407,
			"lat": 30.78381
		}
	},
	{
		"id": 4337291,
		"name": "Pineville",
		"state": "LA",
		"country": "US",
		"coord": {
			"lon": -92.434303,
			"lat": 31.322399
		}
	},
	{
		"id": 4337395,
		"name": "Plain Dealing",
		"state": "LA",
		"country": "US",
		"coord": {
			"lon": -93.696838,
			"lat": 32.90514
		}
	},
	{
		"id": 4337436,
		"name": "Plaquemine",
		"state": "LA",
		"country": "US",
		"coord": {
			"lon": -91.234268,
			"lat": 30.28908
		}
	},
	{
		"id": 4337452,
		"name": "Plaquemines Parish",
		"state": "LA",
		"country": "US",
		"coord": {
			"lon": -89.700058,
			"lat": 29.45022
		}
	},
	{
		"id": 4337775,
		"name": "Ponchatoula",
		"state": "LA",
		"country": "US",
		"coord": {
			"lon": -90.441483,
			"lat": 30.438801
		}
	},
	{
		"id": 4337823,
		"name": "Port Allen",
		"state": "LA",
		"country": "US",
		"coord": {
			"lon": -91.210114,
			"lat": 30.452141
		}
	},
	{
		"id": 4337836,
		"name": "Port Barre",
		"state": "LA",
		"country": "US",
		"coord": {
			"lon": -91.95401,
			"lat": 30.5602
		}
	},
	{
		"id": 4337845,
		"name": "Port Fourchon",
		"state": "LA",
		"country": "US",
		"coord": {
			"lon": -90.194519,
			"lat": 29.105789
		}
	},
	{
		"id": 4337859,
		"name": "Port Sulphur",
		"state": "LA",
		"country": "US",
		"coord": {
			"lon": -89.693947,
			"lat": 29.48049
		}
	},
	{
		"id": 4337963,
		"name": "Poydras",
		"state": "LA",
		"country": "US",
		"coord": {
			"lon": -89.888947,
			"lat": 29.86937
		}
	},
	{
		"id": 4338012,
		"name": "Prairieville",
		"state": "LA",
		"country": "US",
		"coord": {
			"lon": -90.972054,
			"lat": 30.302971
		}
	},
	{
		"id": 4338017,
		"name": "Prairieland",
		"state": "LA",
		"country": "US",
		"coord": {
			"lon": -93.213211,
			"lat": 30.11021
		}
	},
	{
		"id": 4338040,
		"name": "Presquille",
		"state": "LA",
		"country": "US",
		"coord": {
			"lon": -90.646202,
			"lat": 29.563829
		}
	},
	{
		"id": 4338068,
		"name": "Prien",
		"state": "LA",
		"country": "US",
		"coord": {
			"lon": -93.273773,
			"lat": 30.18187
		}
	},
	{
		"id": 4338298,
		"name": "Raceland",
		"state": "LA",
		"country": "US",
		"coord": {
			"lon": -90.598984,
			"lat": 29.72743
		}
	},
	{
		"id": 4338356,
		"name": "Rapides Parish",
		"state": "LA",
		"country": "US",
		"coord": {
			"lon": -92.483467,
			"lat": 31.166849
		}
	},
	{
		"id": 4338406,
		"name": "Rayne",
		"state": "LA",
		"country": "US",
		"coord": {
			"lon": -92.268463,
			"lat": 30.234921
		}
	},
	{
		"id": 4338415,
		"name": "Rayville",
		"state": "LA",
		"country": "US",
		"coord": {
			"lon": -91.754852,
			"lat": 32.47736
		}
	},
	{
		"id": 4338615,
		"name": "Reserve",
		"state": "LA",
		"country": "US",
		"coord": {
			"lon": -90.55175,
			"lat": 30.05381
		}
	},
	{
		"id": 4338720,
		"name": "Richwood",
		"state": "LA",
		"country": "US",
		"coord": {
			"lon": -92.084862,
			"lat": 32.448761
		}
	},
	{
		"id": 4338772,
		"name": "Ringgold",
		"state": "LA",
		"country": "US",
		"coord": {
			"lon": -93.279892,
			"lat": 32.328491
		}
	},
	{
		"id": 4338818,
		"name": "River Ridge",
		"state": "LA",
		"country": "US",
		"coord": {
			"lon": -90.21563,
			"lat": 29.960199
		}
	},
	{
		"id": 4339148,
		"name": "Roseland",
		"state": "LA",
		"country": "US",
		"coord": {
			"lon": -90.511757,
			"lat": 30.76491
		}
	},
	{
		"id": 4339179,
		"name": "Rosepine",
		"state": "LA",
		"country": "US",
		"coord": {
			"lon": -93.282387,
			"lat": 30.91991
		}
	},
	{
		"id": 4339348,
		"name": "Ruston",
		"state": "LA",
		"country": "US",
		"coord": {
			"lon": -92.637932,
			"lat": 32.523209
		}
	},
	{
		"id": 4339526,
		"name": "Saint Bernard Parish",
		"state": "LA",
		"country": "US",
		"coord": {
			"lon": -89.650063,
			"lat": 29.85021
		}
	},
	{
		"id": 4339684,
		"name": "Saint Francisville",
		"state": "LA",
		"country": "US",
		"coord": {
			"lon": -91.376503,
			"lat": 30.7799
		}
	},
	{
		"id": 4339690,
		"name": "Saint Gabriel",
		"state": "LA",
		"country": "US",
		"coord": {
			"lon": -91.099274,
			"lat": 30.2577
		}
	},
	{
		"id": 4339881,
		"name": "Saint John the Baptist Parish",
		"state": "LA",
		"country": "US",
		"coord": {
			"lon": -90.550087,
			"lat": 30.0502
		}
	},
	{
		"id": 4339934,
		"name": "Saint Joseph",
		"state": "LA",
		"country": "US",
		"coord": {
			"lon": -91.233452,
			"lat": 31.918489
		}
	},
	{
		"id": 4340045,
		"name": "Saint Landry Parish",
		"state": "LA",
		"country": "US",
		"coord": {
			"lon": -92.000389,
			"lat": 30.63353
		}
	},
	{
		"id": 4340196,
		"name": "Saint Martinville",
		"state": "LA",
		"country": "US",
		"coord": {
			"lon": -91.83345,
			"lat": 30.1252
		}
	},
	{
		"id": 4340551,
		"name": "Saint Rose",
		"state": "LA",
		"country": "US",
		"coord": {
			"lon": -90.323128,
			"lat": 29.946871
		}
	},
	{
		"id": 4340579,
		"name": "Saint Tammany Parish",
		"state": "LA",
		"country": "US",
		"coord": {
			"lon": -89.966743,
			"lat": 30.433531
		}
	},
	{
		"id": 4341007,
		"name": "Schriever",
		"state": "LA",
		"country": "US",
		"coord": {
			"lon": -90.810371,
			"lat": 29.742149
		}
	},
	{
		"id": 4341033,
		"name": "Scott",
		"state": "LA",
		"country": "US",
		"coord": {
			"lon": -92.094566,
			"lat": 30.23576
		}
	},
	{
		"id": 4341067,
		"name": "Seabrook",
		"state": "LA",
		"country": "US",
		"coord": {
			"lon": -90.013397,
			"lat": 30.03187
		}
	},
	{
		"id": 4341068,
		"name": "Seabrook",
		"state": "",
		"country": "US",
		"coord": {
			"lon": -90.026176,
			"lat": 30.02854
		}
	},
	{
		"id": 4341377,
		"name": "Sheltons",
		"state": "LA",
		"country": "US",
		"coord": {
			"lon": -91.907349,
			"lat": 32.8293
		}
	},
	{
		"id": 4341378,
		"name": "Shenandoah",
		"state": "LA",
		"country": "US",
		"coord": {
			"lon": -91.000938,
			"lat": 30.4013
		}
	},
	{
		"id": 4341513,
		"name": "Shreveport",
		"state": "LA",
		"country": "US",
		"coord": {
			"lon": -93.750183,
			"lat": 32.52515
		}
	},
	{
		"id": 4341543,
		"name": "Sibley",
		"state": "LA",
		"country": "US",
		"coord": {
			"lon": -93.29628,
			"lat": 32.539322
		}
	},
	{
		"id": 4341545,
		"name": "Sibley",
		"state": "LA",
		"country": "US",
		"coord": {
			"lon": -92.467369,
			"lat": 32.575699
		}
	},
	{
		"id": 4341610,
		"name": "Simmesport",
		"state": "LA",
		"country": "US",
		"coord": {
			"lon": -91.800117,
			"lat": 30.983521
		}
	},
	{
		"id": 4341715,
		"name": "Slagle",
		"state": "LA",
		"country": "US",
		"coord": {
			"lon": -93.12738,
			"lat": 31.20241
		}
	},
	{
		"id": 4341727,
		"name": "Slidell",
		"state": "LA",
		"country": "US",
		"coord": {
			"lon": -89.781174,
			"lat": 30.27519
		}
	},
	{
		"id": 4341920,
		"name": "Sorrento",
		"state": "LA",
		"country": "US",
		"coord": {
			"lon": -90.859261,
			"lat": 30.184361
		}
	},
	{
		"id": 4342089,
		"name": "South Vacherie",
		"state": "LA",
		"country": "US",
		"coord": {
			"lon": -90.699806,
			"lat": 29.927429
		}
	},
	{
		"id": 4342429,
		"name": "Springhill",
		"state": "LA",
		"country": "US",
		"coord": {
			"lon": -93.466843,
			"lat": 33.00597
		}
	},
	{
		"id": 4342504,
		"name": "Stanley",
		"state": "LA",
		"country": "US",
		"coord": {
			"lon": -92.897926,
			"lat": 30.49798
		}
	},
	{
		"id": 4342638,
		"name": "Sterlington",
		"state": "LA",
		"country": "US",
		"coord": {
			"lon": -92.085968,
			"lat": 32.696251
		}
	},
	{
		"id": 4342696,
		"name": "Stonewall",
		"state": "LA",
		"country": "US",
		"coord": {
			"lon": -93.824074,
			"lat": 32.28183
		}
	},
	{
		"id": 4342816,
		"name": "Sulphur",
		"state": "LA",
		"country": "US",
		"coord": {
			"lon": -93.37738,
			"lat": 30.236589
		}
	},
	{
		"id": 4342921,
		"name": "Sunset",
		"state": "LA",
		"country": "US",
		"coord": {
			"lon": -92.068451,
			"lat": 30.41131
		}
	},
	{
		"id": 4342949,
		"name": "Supreme",
		"state": "LA",
		"country": "US",
		"coord": {
			"lon": -90.981209,
			"lat": 29.859369
		}
	},
	{
		"id": 4342984,
		"name": "Swartz",
		"state": "LA",
		"country": "US",
		"coord": {
			"lon": -91.98513,
			"lat": 32.568748
		}
	},
	{
		"id": 4343103,
		"name": "Tallulah",
		"state": "LA",
		"country": "US",
		"coord": {
			"lon": -91.186783,
			"lat": 32.408482
		}
	},
	{
		"id": 4343122,
		"name": "Tangipahoa Parish",
		"state": "LA",
		"country": "US",
		"coord": {
			"lon": -90.400093,
			"lat": 30.666849
		}
	},
	{
		"id": 4343313,
		"name": "Terrebonne Parish",
		"state": "LA",
		"country": "US",
		"coord": {
			"lon": -90.85009,
			"lat": 29.37661
		}
	},
	{
		"id": 4343327,
		"name": "Terrytown",
		"state": "LA",
		"country": "US",
		"coord": {
			"lon": -90.03257,
			"lat": 29.9102
		}
	},
	{
		"id": 4343429,
		"name": "Thibodaux",
		"state": "LA",
		"country": "US",
		"coord": {
			"lon": -90.822868,
			"lat": 29.795759
		}
	},
	{
		"id": 4343659,
		"name": "Timberlane",
		"state": "LA",
		"country": "US",
		"coord": {
			"lon": -90.032021,
			"lat": 29.87743
		}
	},
	{
		"id": 4344414,
		"name": "Urania",
		"state": "LA",
		"country": "US",
		"coord": {
			"lon": -92.295967,
			"lat": 31.863779
		}
	},
	{
		"id": 4344481,
		"name": "Varnado",
		"state": "LA",
		"country": "US",
		"coord": {
			"lon": -89.829521,
			"lat": 30.893801
		}
	},
	{
		"id": 4344530,
		"name": "Vermilion Parish",
		"state": "LA",
		"country": "US",
		"coord": {
			"lon": -92.300133,
			"lat": 29.816879
		}
	},
	{
		"id": 4344544,
		"name": "Vernon Parish",
		"state": "LA",
		"country": "US",
		"coord": {
			"lon": -93.183502,
			"lat": 31.11685
		}
	},
	{
		"id": 4344599,
		"name": "Vidalia",
		"state": "LA",
		"country": "US",
		"coord": {
			"lon": -91.425949,
			"lat": 31.565439
		}
	},
	{
		"id": 4344623,
		"name": "Vienna Bend",
		"state": "LA",
		"country": "US",
		"coord": {
			"lon": -93.041,
			"lat": 31.732389
		}
	},
	{
		"id": 4344644,
		"name": "Village Saint George",
		"state": "LA",
		"country": "US",
		"coord": {
			"lon": -91.067329,
			"lat": 30.362141
		}
	},
	{
		"id": 4344651,
		"name": "Ville Platte",
		"state": "LA",
		"country": "US",
		"coord": {
			"lon": -92.271523,
			"lat": 30.687969
		}
	},
	{
		"id": 4344676,
		"name": "Vinton",
		"state": "LA",
		"country": "US",
		"coord": {
			"lon": -93.581268,
			"lat": 30.19076
		}
	},
	{
		"id": 4344684,
		"name": "Violet",
		"state": "LA",
		"country": "US",
		"coord": {
			"lon": -89.897842,
			"lat": 29.89576
		}
	},
	{
		"id": 4344697,
		"name": "Vivian",
		"state": "LA",
		"country": "US",
		"coord": {
			"lon": -93.987396,
			"lat": 32.871529
		}
	},
	{
		"id": 4344819,
		"name": "Waggaman",
		"state": "LA",
		"country": "US",
		"coord": {
			"lon": -90.210907,
			"lat": 29.918539
		}
	},
	{
		"id": 4344844,
		"name": "Walker",
		"state": "LA",
		"country": "US",
		"coord": {
			"lon": -90.861488,
			"lat": 30.48797
		}
	},
	{
		"id": 4344941,
		"name": "Walroy",
		"state": "LA",
		"country": "US",
		"coord": {
			"lon": -91.998734,
			"lat": 30.19742
		}
	},
	{
		"id": 4345555,
		"name": "Watson",
		"state": "LA",
		"country": "US",
		"coord": {
			"lon": -90.953163,
			"lat": 30.575741
		}
	},
	{
		"id": 4345618,
		"name": "Webster Parish",
		"state": "LA",
		"country": "US",
		"coord": {
			"lon": -93.350166,
			"lat": 32.716808
		}
	},
	{
		"id": 4345638,
		"name": "Weil",
		"state": "LA",
		"country": "US",
		"coord": {
			"lon": -92.560699,
			"lat": 31.31185
		}
	},
	{
		"id": 4345667,
		"name": "Welsh",
		"state": "LA",
		"country": "US",
		"coord": {
			"lon": -92.822647,
			"lat": 30.23604
		}
	},
	{
		"id": 4345780,
		"name": "West Ferriday",
		"state": "LA",
		"country": "US",
		"coord": {
			"lon": -91.573181,
			"lat": 31.64044
		}
	},
	{
		"id": 4345850,
		"name": "West Monroe",
		"state": "LA",
		"country": "US",
		"coord": {
			"lon": -92.147636,
			"lat": 32.518478
		}
	},
	{
		"id": 4345925,
		"name": "Westlake",
		"state": "LA",
		"country": "US",
		"coord": {
			"lon": -93.25071,
			"lat": 30.242149
		}
	},
	{
		"id": 4345968,
		"name": "Westwego",
		"state": "LA",
		"country": "US",
		"coord": {
			"lon": -90.142303,
			"lat": 29.90604
		}
	},
	{
		"id": 4346014,
		"name": "Westminster",
		"state": "LA",
		"country": "US",
		"coord": {
			"lon": -91.087601,
			"lat": 30.413799
		}
	},
	{
		"id": 4346053,
		"name": "White Castle",
		"state": "LA",
		"country": "US",
		"coord": {
			"lon": -91.147049,
			"lat": 30.16992
		}
	},
	{
		"id": 4346310,
		"name": "Willow Glen",
		"state": "LA",
		"country": "US",
		"coord": {
			"lon": -93.684067,
			"lat": 32.036549
		}
	},
	{
		"id": 4346455,
		"name": "Winnfield",
		"state": "LA",
		"country": "US",
		"coord": {
			"lon": -92.639587,
			"lat": 31.92544
		}
	},
	{
		"id": 4346466,
		"name": "Winnsboro",
		"state": "LA",
		"country": "US",
		"coord": {
			"lon": -91.72068,
			"lat": 32.163212
		}
	},
	{
		"id": 4346615,
		"name": "Woodmere",
		"state": "LA",
		"country": "US",
		"coord": {
			"lon": -90.080353,
			"lat": 29.857981
		}
	},
	{
		"id": 4346646,
		"name": "Woodworth",
		"state": "LA",
		"country": "US",
		"coord": {
			"lon": -92.49736,
			"lat": 31.14658
		}
	},
	{
		"id": 4346788,
		"name": "Zachary",
		"state": "LA",
		"country": "US",
		"coord": {
			"lon": -91.156502,
			"lat": 30.64852
		}
	},
	{
		"id": 4346810,
		"name": "Youngsville",
		"state": "LA",
		"country": "US",
		"coord": {
			"lon": -91.99012,
			"lat": 30.099649
		}
	},
	{
		"id": 4346884,
		"name": "Zwolle",
		"state": "LA",
		"country": "US",
		"coord": {
			"lon": -93.644073,
			"lat": 31.631559
		}
	},
	{
		"id": 4346913,
		"name": "Aberdeen",
		"state": "MD",
		"country": "US",
		"coord": {
			"lon": -76.164124,
			"lat": 39.50956
		}
	},
	{
		"id": 4346952,
		"name": "Accokeek",
		"state": "MD",
		"country": "US",
		"coord": {
			"lon": -77.028313,
			"lat": 38.667622
		}
	},
	{
		"id": 4346978,
		"name": "Adamstown",
		"state": "MD",
		"country": "US",
		"coord": {
			"lon": -77.474709,
			"lat": 39.31094
		}
	},
	{
		"id": 4346991,
		"name": "Adelphi",
		"state": "MD",
		"country": "US",
		"coord": {
			"lon": -76.971916,
			"lat": 39.00317
		}
	},
	{
		"id": 4347060,
		"name": "Algonquin",
		"state": "MD",
		"country": "US",
		"coord": {
			"lon": -76.105766,
			"lat": 38.582901
		}
	},
	{
		"id": 4347094,
		"name": "Allegany County",
		"state": "MD",
		"country": "US",
		"coord": {
			"lon": -78.666412,
			"lat": 39.666752
		}
	},
	{
		"id": 4347242,
		"name": "Annapolis",
		"state": "MD",
		"country": "US",
		"coord": {
			"lon": -76.49218,
			"lat": 38.978451
		}
	},
	{
		"id": 4347283,
		"name": "Anne Arundel County",
		"state": "MD",
		"country": "US",
		"coord": {
			"lon": -76.616348,
			"lat": 39.000111
		}
	},
	{
		"id": 4347371,
		"name": "Arbutus",
		"state": "MD",
		"country": "US",
		"coord": {
			"lon": -76.699966,
			"lat": 39.254551
		}
	},
	{
		"id": 4347392,
		"name": "Arden on the Severn",
		"state": "MD",
		"country": "US",
		"coord": {
			"lon": -76.57885,
			"lat": 39.065941
		}
	},
	{
		"id": 4347426,
		"name": "Arnold",
		"state": "MD",
		"country": "US",
		"coord": {
			"lon": -76.502739,
			"lat": 39.032059
		}
	},
	{
		"id": 4347553,
		"name": "Aspen Hill",
		"state": "MD",
		"country": "US",
		"coord": {
			"lon": -77.073029,
			"lat": 39.079552
		}
	},
	{
		"id": 4347708,
		"name": "Baden",
		"state": "MD",
		"country": "US",
		"coord": {
			"lon": -76.777748,
			"lat": 38.659279
		}
	},
	{
		"id": 4347778,
		"name": "Baltimore",
		"state": "MD",
		"country": "US",
		"coord": {
			"lon": -76.61219,
			"lat": 39.290379
		}
	},
	{
		"id": 4347790,
		"name": "Baltimore County",
		"state": "MD",
		"country": "US",
		"coord": {
			"lon": -76.649689,
			"lat": 39.46677
		}
	},
	{
		"id": 4347800,
		"name": "Baltimore Highlands",
		"state": "MD",
		"country": "US",
		"coord": {
			"lon": -76.636627,
			"lat": 39.233158
		}
	},
	{
		"id": 4347820,
		"name": "City of Baltimore",
		"state": "MD",
		"country": "US",
		"coord": {
			"lon": -76.61219,
			"lat": 39.290379
		}
	},
	{
		"id": 4347839,
		"name": "Ballenger Creek",
		"state": "MD",
		"country": "US",
		"coord": {
			"lon": -77.435257,
			"lat": 39.372601
		}
	},
	{
		"id": 4347893,
		"name": "Barnes Corner",
		"state": "MD",
		"country": "US",
		"coord": {
			"lon": -76.065498,
			"lat": 39.67511
		}
	},
	{
		"id": 4347947,
		"name": "Bartonsville",
		"state": "MD",
		"country": "US",
		"coord": {
			"lon": -77.35804,
			"lat": 39.392601
		}
	},
	{
		"id": 4348240,
		"name": "Bel Air",
		"state": "MD",
		"country": "US",
		"coord": {
			"lon": -76.348289,
			"lat": 39.535938
		}
	},
	{
		"id": 4348268,
		"name": "Bel Air",
		"state": "MD",
		"country": "US",
		"coord": {
			"lon": -78.849739,
			"lat": 39.573139
		}
	},
	{
		"id": 4348353,
		"name": "Beltsville",
		"state": "MD",
		"country": "US",
		"coord": {
			"lon": -76.907471,
			"lat": 39.034828
		}
	},
	{
		"id": 4348418,
		"name": "Bennsville",
		"state": "MD",
		"country": "US",
		"coord": {
			"lon": -77.012199,
			"lat": 38.609291
		}
	},
	{
		"id": 4348460,
		"name": "Berlin",
		"state": "MD",
		"country": "US",
		"coord": {
			"lon": -75.21769,
			"lat": 38.32262
		}
	},
	{
		"id": 4348485,
		"name": "Berwyn Heights",
		"state": "MD",
		"country": "US",
		"coord": {
			"lon": -76.91053,
			"lat": 38.993999
		}
	},
	{
		"id": 4348599,
		"name": "Bethesda",
		"state": "MD",
		"country": "US",
		"coord": {
			"lon": -77.100258,
			"lat": 38.980671
		}
	},
	{
		"id": 4348888,
		"name": "Bladensburg",
		"state": "MD",
		"country": "US",
		"coord": {
			"lon": -76.933861,
			"lat": 38.939281
		}
	},
	{
		"id": 4349107,
		"name": "Boonsboro",
		"state": "MD",
		"country": "US",
		"coord": {
			"lon": -77.652489,
			"lat": 39.50621
		}
	},
	{
		"id": 4349159,
		"name": "Bowie",
		"state": "MD",
		"country": "US",
		"coord": {
			"lon": -76.730278,
			"lat": 38.94278
		}
	},
	{
		"id": 4349175,
		"name": "Bowleys Quarters",
		"state": "MD",
		"country": "US",
		"coord": {
			"lon": -76.390244,
			"lat": 39.335388
		}
	},
	{
		"id": 4349180,
		"name": "Bowling Green",
		"state": "MD",
		"country": "US",
		"coord": {
			"lon": -78.804459,
			"lat": 39.623699
		}
	},
	{
		"id": 4349228,
		"name": "Braddock Heights",
		"state": "MD",
		"country": "US",
		"coord": {
			"lon": -77.503601,
			"lat": 39.418709
		}
	},
	{
		"id": 4349283,
		"name": "Brandywine",
		"state": "MD",
		"country": "US",
		"coord": {
			"lon": -76.847748,
			"lat": 38.696781
		}
	},
	{
		"id": 4349337,
		"name": "Brentwood",
		"state": "MD",
		"country": "US",
		"coord": {
			"lon": -76.956642,
			"lat": 38.943169
		}
	},
	{
		"id": 4349551,
		"name": "Brock Hall",
		"state": "MD",
		"country": "US",
		"coord": {
			"lon": -76.761078,
			"lat": 38.850109
		}
	},
	{
		"id": 4349599,
		"name": "Brooklyn Park",
		"state": "MD",
		"country": "US",
		"coord": {
			"lon": -76.616364,
			"lat": 39.228439
		}
	},
	{
		"id": 4349611,
		"name": "Brookmont",
		"state": "MD",
		"country": "US",
		"coord": {
			"lon": -77.120262,
			"lat": 38.942059
		}
	},
	{
		"id": 4349706,
		"name": "Brunswick",
		"state": "MD",
		"country": "US",
		"coord": {
			"lon": -77.627769,
			"lat": 39.31427
		}
	},
	{
		"id": 4349727,
		"name": "Bryans Road",
		"state": "MD",
		"country": "US",
		"coord": {
			"lon": -77.073029,
			"lat": 38.62706
		}
	},
	{
		"id": 4349755,
		"name": "Buckeystown",
		"state": "MD",
		"country": "US",
		"coord": {
			"lon": -77.431648,
			"lat": 39.33482
		}
	},
	{
		"id": 4349903,
		"name": "Burtonsville",
		"state": "MD",
		"country": "US",
		"coord": {
			"lon": -76.93248,
			"lat": 39.111221
		}
	},
	{
		"id": 4350013,
		"name": "Cabin John",
		"state": "MD",
		"country": "US",
		"coord": {
			"lon": -77.158028,
			"lat": 38.975391
		}
	},
	{
		"id": 4350049,
		"name": "California",
		"state": "MD",
		"country": "US",
		"coord": {
			"lon": -76.507446,
			"lat": 38.3004
		}
	},
	{
		"id": 4350160,
		"name": "Calverton",
		"state": "MD",
		"country": "US",
		"coord": {
			"lon": -76.935806,
			"lat": 39.05761
		}
	},
	{
		"id": 4350175,
		"name": "Cambridge",
		"state": "MD",
		"country": "US",
		"coord": {
			"lon": -76.078827,
			"lat": 38.563171
		}
	},
	{
		"id": 4350288,
		"name": "Camp Springs",
		"state": "MD",
		"country": "US",
		"coord": {
			"lon": -76.906639,
			"lat": 38.804001
		}
	},
	{
		"id": 4350348,
		"name": "Cape Saint Claire",
		"state": "MD",
		"country": "US",
		"coord": {
			"lon": -76.444962,
			"lat": 39.043171
		}
	},
	{
		"id": 4350359,
		"name": "Capitol Heights",
		"state": "MD",
		"country": "US",
		"coord": {
			"lon": -76.91581,
			"lat": 38.885109
		}
	},
	{
		"id": 4350413,
		"name": "Carney",
		"state": "MD",
		"country": "US",
		"coord": {
			"lon": -76.523582,
			"lat": 39.394272
		}
	},
	{
		"id": 4350461,
		"name": "Carroll County",
		"state": "MD",
		"country": "US",
		"coord": {
			"lon": -77.016373,
			"lat": 39.550098
		}
	},
	{
		"id": 4350635,
		"name": "Catonsville",
		"state": "MD",
		"country": "US",
		"coord": {
			"lon": -76.731918,
			"lat": 39.272049
		}
	},
	{
		"id": 4350675,
		"name": "Cavetown",
		"state": "MD",
		"country": "US",
		"coord": {
			"lon": -77.585823,
			"lat": 39.64426
		}
	},
	{
		"id": 4350685,
		"name": "Cecil County",
		"state": "MD",
		"country": "US",
		"coord": {
			"lon": -75.949669,
			"lat": 39.56678
		}
	},
	{
		"id": 4350878,
		"name": "Centreville",
		"state": "MD",
		"country": "US",
		"coord": {
			"lon": -76.06633,
			"lat": 39.041779
		}
	},
	{
		"id": 4351021,
		"name": "Charles County",
		"state": "MD",
		"country": "US",
		"coord": {
			"lon": -76.983032,
			"lat": 38.483459
		}
	},
	{
		"id": 4351037,
		"name": "Charlestown",
		"state": "MD",
		"country": "US",
		"coord": {
			"lon": -76.705254,
			"lat": 39.268162
		}
	},
	{
		"id": 4351038,
		"name": "Charlestown",
		"state": "MD",
		"country": "US",
		"coord": {
			"lon": -75.974953,
			"lat": 39.57373
		}
	},
	{
		"id": 4351048,
		"name": "Charlotte Hall",
		"state": "MD",
		"country": "US",
		"coord": {
			"lon": -76.778023,
			"lat": 38.480961
		}
	},
	{
		"id": 4351184,
		"name": "Chesapeake Beach",
		"state": "MD",
		"country": "US",
		"coord": {
			"lon": -76.534683,
			"lat": 38.68623
		}
	},
	{
		"id": 4351228,
		"name": "Chesapeake Ranch Estates",
		"state": "MD",
		"country": "US",
		"coord": {
			"lon": -76.417732,
			"lat": 38.346241
		}
	},
	{
		"id": 4351248,
		"name": "Chester",
		"state": "MD",
		"country": "US",
		"coord": {
			"lon": -76.289398,
			"lat": 38.975391
		}
	},
	{
		"id": 4351264,
		"name": "Chestertown",
		"state": "MD",
		"country": "US",
		"coord": {
			"lon": -76.066612,
			"lat": 39.209
		}
	},
	{
		"id": 4351327,
		"name": "Cheverly",
		"state": "MD",
		"country": "US",
		"coord": {
			"lon": -76.91581,
			"lat": 38.928169
		}
	},
	{
		"id": 4351335,
		"name": "Chevy Chase",
		"state": "MD",
		"country": "US",
		"coord": {
			"lon": -77.07637,
			"lat": 38.971218
		}
	},
	{
		"id": 4351352,
		"name": "Chevy Chase Village",
		"state": "MD",
		"country": "US",
		"coord": {
			"lon": -77.078873,
			"lat": 38.96928
		}
	},
	{
		"id": 4351383,
		"name": "Chillum",
		"state": "MD",
		"country": "US",
		"coord": {
			"lon": -76.990807,
			"lat": 38.963718
		}
	},
	{
		"id": 4351708,
		"name": "Clarksburg",
		"state": "MD",
		"country": "US",
		"coord": {
			"lon": -77.279427,
			"lat": 39.23872
		}
	},
	{
		"id": 4351840,
		"name": "Clover Hill",
		"state": "MD",
		"country": "US",
		"coord": {
			"lon": -77.428871,
			"lat": 39.456211
		}
	},
	{
		"id": 4351851,
		"name": "Cloverly",
		"state": "MD",
		"country": "US",
		"coord": {
			"lon": -76.997749,
			"lat": 39.108158
		}
	},
	{
		"id": 4351871,
		"name": "Clinton",
		"state": "MD",
		"country": "US",
		"coord": {
			"lon": -76.898308,
			"lat": 38.76511
		}
	},
	{
		"id": 4351887,
		"name": "Cockeysville",
		"state": "MD",
		"country": "US",
		"coord": {
			"lon": -76.64386,
			"lat": 39.48122
		}
	},
	{
		"id": 4351951,
		"name": "Colesville",
		"state": "MD",
		"country": "US",
		"coord": {
			"lon": -77.001923,
			"lat": 39.075661
		}
	},
	{
		"id": 4351977,
		"name": "College Park",
		"state": "MD",
		"country": "US",
		"coord": {
			"lon": -76.93692,
			"lat": 38.980671
		}
	},
	{
		"id": 4352015,
		"name": "Colmar Manor",
		"state": "MD",
		"country": "US",
		"coord": {
			"lon": -76.945808,
			"lat": 38.93317
		}
	},
	{
		"id": 4352053,
		"name": "Columbia",
		"state": "MD",
		"country": "US",
		"coord": {
			"lon": -76.839417,
			"lat": 39.240379
		}
	},
	{
		"id": 4352247,
		"name": "Coral Hills",
		"state": "MD",
		"country": "US",
		"coord": {
			"lon": -76.921082,
			"lat": 38.870392
		}
	},
	{
		"id": 4352287,
		"name": "Cottage City",
		"state": "MD",
		"country": "US",
		"coord": {
			"lon": -76.948311,
			"lat": 38.938171
		}
	},
	{
		"id": 4352502,
		"name": "Cresaptown",
		"state": "MD",
		"country": "US",
		"coord": {
			"lon": -78.833351,
			"lat": 39.592869
		}
	},
	{
		"id": 4352505,
		"name": "Crescendo",
		"state": "MD",
		"country": "US",
		"coord": {
			"lon": -76.293839,
			"lat": 38.786228
		}
	},
	{
		"id": 4352539,
		"name": "Crofton",
		"state": "MD",
		"country": "US",
		"coord": {
			"lon": -76.687469,
			"lat": 39.001781
		}
	},
	{
		"id": 4352577,
		"name": "Crisfield",
		"state": "MD",
		"country": "US",
		"coord": {
			"lon": -75.853821,
			"lat": 37.983459
		}
	},
	{
		"id": 4352582,
		"name": "Croom",
		"state": "MD",
		"country": "US",
		"coord": {
			"lon": -76.763863,
			"lat": 38.752621
		}
	},
	{
		"id": 4352618,
		"name": "Crownsville",
		"state": "MD",
		"country": "US",
		"coord": {
			"lon": -76.601349,
			"lat": 39.028439
		}
	},
	{
		"id": 4352681,
		"name": "Cumberland",
		"state": "MD",
		"country": "US",
		"coord": {
			"lon": -78.76252,
			"lat": 39.65287
		}
	},
	{
		"id": 4352728,
		"name": "Damascus",
		"state": "MD",
		"country": "US",
		"coord": {
			"lon": -77.203873,
			"lat": 39.288441
		}
	},
	{
		"id": 4352795,
		"name": "Darnestown",
		"state": "MD",
		"country": "US",
		"coord": {
			"lon": -77.290817,
			"lat": 39.103439
		}
	},
	{
		"id": 4352888,
		"name": "Deale",
		"state": "MD",
		"country": "US",
		"coord": {
			"lon": -76.555237,
			"lat": 38.776508
		}
	},
	{
		"id": 4353035,
		"name": "Delmar",
		"state": "",
		"country": "US",
		"coord": {
			"lon": -75.577423,
			"lat": 38.455952
		}
	},
	{
		"id": 4353075,
		"name": "Denton",
		"state": "MD",
		"country": "US",
		"coord": {
			"lon": -75.827164,
			"lat": 38.88456
		}
	},
	{
		"id": 4353084,
		"name": "Derwood",
		"state": "MD",
		"country": "US",
		"coord": {
			"lon": -77.161087,
			"lat": 39.117329
		}
	},
	{
		"id": 4353463,
		"name": "District Heights",
		"state": "MD",
		"country": "US",
		"coord": {
			"lon": -76.88942,
			"lat": 38.857609
		}
	},
	{
		"id": 4353543,
		"name": "Dorchester County",
		"state": "MD",
		"country": "US",
		"coord": {
			"lon": -75.999657,
			"lat": 38.466789
		}
	},
	{
		"id": 4353667,
		"name": "Drum Point",
		"state": "MD",
		"country": "US",
		"coord": {
			"lon": -76.426064,
			"lat": 38.32679
		}
	},
	{
		"id": 4353765,
		"name": "Dundalk",
		"state": "MD",
		"country": "US",
		"coord": {
			"lon": -76.520523,
			"lat": 39.25066
		}
	},
	{
		"id": 4353798,
		"name": "Dunkirk",
		"state": "MD",
		"country": "US",
		"coord": {
			"lon": -76.660522,
			"lat": 38.721779
		}
	},
	{
		"id": 4353805,
		"name": "Dunkirk Town Center",
		"state": "MD",
		"country": "US",
		"coord": {
			"lon": -76.658569,
			"lat": 38.72039
		}
	},
	{
		"id": 4353925,
		"name": "East Riverdale",
		"state": "MD",
		"country": "US",
		"coord": {
			"lon": -76.921921,
			"lat": 38.962059
		}
	},
	{
		"id": 4353962,
		"name": "Easton",
		"state": "MD",
		"country": "US",
		"coord": {
			"lon": -76.076332,
			"lat": 38.774281
		}
	},
	{
		"id": 4354060,
		"name": "Edgemere",
		"state": "MD",
		"country": "US",
		"coord": {
			"lon": -76.448021,
			"lat": 39.24205
		}
	},
	{
		"id": 4354072,
		"name": "Edgewater",
		"state": "MD",
		"country": "US",
		"coord": {
			"lon": -76.549957,
			"lat": 38.957062
		}
	},
	{
		"id": 4354087,
		"name": "Edgewood",
		"state": "MD",
		"country": "US",
		"coord": {
			"lon": -76.294403,
			"lat": 39.41872
		}
	},
	{
		"id": 4354121,
		"name": "Edmonston",
		"state": "MD",
		"country": "US",
		"coord": {
			"lon": -76.931091,
			"lat": 38.946781
		}
	},
	{
		"id": 4354163,
		"name": "Eldersburg",
		"state": "MD",
		"country": "US",
		"coord": {
			"lon": -76.950256,
			"lat": 39.403709
		}
	},
	{
		"id": 4354234,
		"name": "Elkton",
		"state": "MD",
		"country": "US",
		"coord": {
			"lon": -75.833267,
			"lat": 39.606781
		}
	},
	{
		"id": 4354256,
		"name": "Elkridge",
		"state": "MD",
		"country": "US",
		"coord": {
			"lon": -76.713577,
			"lat": 39.212608
		}
	},
	{
		"id": 4354265,
		"name": "Ellicott City",
		"state": "MD",
		"country": "US",
		"coord": {
			"lon": -76.798309,
			"lat": 39.26733
		}
	},
	{
		"id": 4354352,
		"name": "Emmitsburg",
		"state": "MD",
		"country": "US",
		"coord": {
			"lon": -77.326927,
			"lat": 39.70454
		}
	},
	{
		"id": 4354428,
		"name": "Essex",
		"state": "MD",
		"country": "US",
		"coord": {
			"lon": -76.47496,
			"lat": 39.309269
		}
	},
	{
		"id": 4354573,
		"name": "Fairland",
		"state": "MD",
		"country": "US",
		"coord": {
			"lon": -76.957748,
			"lat": 39.076221
		}
	},
	{
		"id": 4354593,
		"name": "Fairmount Heights",
		"state": "MD",
		"country": "US",
		"coord": {
			"lon": -76.915527,
			"lat": 38.900951
		}
	},
	{
		"id": 4354708,
		"name": "Fallston",
		"state": "MD",
		"country": "US",
		"coord": {
			"lon": -76.411072,
			"lat": 39.514549
		}
	},
	{
		"id": 4354775,
		"name": "Federalsburg",
		"state": "MD",
		"country": "US",
		"coord": {
			"lon": -75.772163,
			"lat": 38.694279
		}
	},
	{
		"id": 4354821,
		"name": "Ferndale",
		"state": "MD",
		"country": "US",
		"coord": {
			"lon": -76.640244,
			"lat": 39.183159
		}
	},
	{
		"id": 4355214,
		"name": "Forest Glen",
		"state": "MD",
		"country": "US",
		"coord": {
			"lon": -77.054703,
			"lat": 39.014549
		}
	},
	{
		"id": 4355230,
		"name": "Forest Heights",
		"state": "MD",
		"country": "US",
		"coord": {
			"lon": -76.998032,
			"lat": 38.809559
		}
	},
	{
		"id": 4355274,
		"name": "Forestville",
		"state": "MD",
		"country": "US",
		"coord": {
			"lon": -76.874969,
			"lat": 38.845112
		}
	},
	{
		"id": 4355322,
		"name": "Fort George G Mead Junction",
		"state": "MD",
		"country": "US",
		"coord": {
			"lon": -76.789139,
			"lat": 39.125938
		}
	},
	{
		"id": 4355355,
		"name": "Fort Washington",
		"state": "MD",
		"country": "US",
		"coord": {
			"lon": -77.023033,
			"lat": 38.70734
		}
	},
	{
		"id": 4355368,
		"name": "Fortney Mobile Home Park",
		"state": "MD",
		"country": "US",
		"coord": {
			"lon": -77.718597,
			"lat": 39.705372
		}
	},
	{
		"id": 4355400,
		"name": "Four Corners",
		"state": "MD",
		"country": "US",
		"coord": {
			"lon": -77.012749,
			"lat": 39.02039
		}
	},
	{
		"id": 4355514,
		"name": "Foxwell Point",
		"state": "MD",
		"country": "US",
		"coord": {
			"lon": -76.633293,
			"lat": 38.287071
		}
	},
	{
		"id": 4355585,
		"name": "Frederick",
		"state": "MD",
		"country": "US",
		"coord": {
			"lon": -77.410538,
			"lat": 39.414268
		}
	},
	{
		"id": 4355594,
		"name": "Frederick County",
		"state": "MD",
		"country": "US",
		"coord": {
			"lon": -77.399712,
			"lat": 39.46677
		}
	},
	{
		"id": 4355670,
		"name": "Friendly",
		"state": "MD",
		"country": "US",
		"coord": {
			"lon": -76.978592,
			"lat": 38.751781
		}
	},
	{
		"id": 4355730,
		"name": "Friendship Village",
		"state": "MD",
		"country": "US",
		"coord": {
			"lon": -77.088867,
			"lat": 38.962891
		}
	},
	{
		"id": 4355756,
		"name": "Frostburg",
		"state": "MD",
		"country": "US",
		"coord": {
			"lon": -78.92836,
			"lat": 39.658138
		}
	},
	{
		"id": 4355780,
		"name": "Fruitland",
		"state": "MD",
		"country": "US",
		"coord": {
			"lon": -75.620201,
			"lat": 38.32206
		}
	},
	{
		"id": 4355809,
		"name": "Fulton",
		"state": "MD",
		"country": "US",
		"coord": {
			"lon": -76.923027,
			"lat": 39.15094
		}
	},
	{
		"id": 4355837,
		"name": "Gaither",
		"state": "MD",
		"country": "US",
		"coord": {
			"lon": -76.993027,
			"lat": 39.361488
		}
	},
	{
		"id": 4355843,
		"name": "Gaithersburg",
		"state": "MD",
		"country": "US",
		"coord": {
			"lon": -77.20137,
			"lat": 39.14344
		}
	},
	{
		"id": 4355899,
		"name": "Gambrills",
		"state": "MD",
		"country": "US",
		"coord": {
			"lon": -76.665237,
			"lat": 39.067051
		}
	},
	{
		"id": 4355939,
		"name": "Garrett County",
		"state": "MD",
		"country": "US",
		"coord": {
			"lon": -79.249763,
			"lat": 39.550091
		}
	},
	{
		"id": 4355958,
		"name": "Garrison",
		"state": "MD",
		"country": "US",
		"coord": {
			"lon": -76.760529,
			"lat": 39.405941
		}
	},
	{
		"id": 4356050,
		"name": "Germantown",
		"state": "MD",
		"country": "US",
		"coord": {
			"lon": -77.271652,
			"lat": 39.173161
		}
	},
	{
		"id": 4356165,
		"name": "Glassmanor",
		"state": "MD",
		"country": "US",
		"coord": {
			"lon": -76.998589,
			"lat": 38.819
		}
	},
	{
		"id": 4356188,
		"name": "Glen Burnie",
		"state": "MD",
		"country": "US",
		"coord": {
			"lon": -76.624687,
			"lat": 39.162609
		}
	},
	{
		"id": 4356242,
		"name": "Glenarden",
		"state": "MD",
		"country": "US",
		"coord": {
			"lon": -76.861641,
			"lat": 38.929279
		}
	},
	{
		"id": 4356280,
		"name": "Glenmont",
		"state": "MD",
		"country": "US",
		"coord": {
			"lon": -77.049698,
			"lat": 39.057892
		}
	},
	{
		"id": 4356289,
		"name": "Glenn Dale",
		"state": "MD",
		"country": "US",
		"coord": {
			"lon": -76.820534,
			"lat": 38.98761
		}
	},
	{
		"id": 4356341,
		"name": "Goddard",
		"state": "MD",
		"country": "US",
		"coord": {
			"lon": -76.85331,
			"lat": 38.989552
		}
	},
	{
		"id": 4356350,
		"name": "Golden Beach",
		"state": "MD",
		"country": "US",
		"coord": {
			"lon": -76.682182,
			"lat": 38.489849
		}
	},
	{
		"id": 4356634,
		"name": "Grasonville",
		"state": "MD",
		"country": "US",
		"coord": {
			"lon": -76.210228,
			"lat": 38.958172
		}
	},
	{
		"id": 4356783,
		"name": "Green Haven",
		"state": "MD",
		"country": "US",
		"coord": {
			"lon": -76.547737,
			"lat": 39.139549
		}
	},
	{
		"id": 4356836,
		"name": "Green Valley",
		"state": "MD",
		"country": "US",
		"coord": {
			"lon": -77.297211,
			"lat": 39.309269
		}
	},
	{
		"id": 4356847,
		"name": "Greenbelt",
		"state": "MD",
		"country": "US",
		"coord": {
			"lon": -76.875526,
			"lat": 39.004551
		}
	},
	{
		"id": 4356953,
		"name": "Greensboro",
		"state": "MD",
		"country": "US",
		"coord": {
			"lon": -75.804932,
			"lat": 38.973721
		}
	},
	{
		"id": 4357141,
		"name": "Hagerstown",
		"state": "MD",
		"country": "US",
		"coord": {
			"lon": -77.719994,
			"lat": 39.641762
		}
	},
	{
		"id": 4357176,
		"name": "Halfway",
		"state": "MD",
		"country": "US",
		"coord": {
			"lon": -77.758881,
			"lat": 39.620651
		}
	},
	{
		"id": 4357279,
		"name": "Hampstead",
		"state": "MD",
		"country": "US",
		"coord": {
			"lon": -76.849983,
			"lat": 39.604832
		}
	},
	{
		"id": 4357289,
		"name": "Hampton",
		"state": "MD",
		"country": "US",
		"coord": {
			"lon": -76.584686,
			"lat": 39.422878
		}
	},
	{
		"id": 4357310,
		"name": "Hancock",
		"state": "MD",
		"country": "US",
		"coord": {
			"lon": -78.179733,
			"lat": 39.698978
		}
	},
	{
		"id": 4357407,
		"name": "Harford County",
		"state": "MD",
		"country": "US",
		"coord": {
			"lon": -76.299683,
			"lat": 39.55011
		}
	},
	{
		"id": 4357617,
		"name": "Havre de Grace",
		"state": "MD",
		"country": "US",
		"coord": {
			"lon": -76.091621,
			"lat": 39.549278
		}
	},
	{
		"id": 4357731,
		"name": "Hebron",
		"state": "MD",
		"country": "US",
		"coord": {
			"lon": -75.687714,
			"lat": 38.42012
		}
	},
	{
		"id": 4357794,
		"name": "Herald Harbor",
		"state": "MD",
		"country": "US",
		"coord": {
			"lon": -76.56913,
			"lat": 39.053719
		}
	},
	{
		"id": 4357826,
		"name": "Heritage Mobile Home Park",
		"state": "MD",
		"country": "US",
		"coord": {
			"lon": -75.93383,
			"lat": 38.59428
		}
	},
	{
		"id": 4357833,
		"name": "Hermanville",
		"state": "MD",
		"country": "US",
		"coord": {
			"lon": -76.429123,
			"lat": 38.24707
		}
	},
	{
		"id": 4357960,
		"name": "High Barbaree",
		"state": "MD",
		"country": "US",
		"coord": {
			"lon": -77.264977,
			"lat": 39.412048
		}
	},
	{
		"id": 4357991,
		"name": "Highfield-Cascade",
		"state": "MD",
		"country": "US",
		"coord": {
			"lon": -77.482819,
			"lat": 39.71616
		}
	},
	{
		"id": 4357998,
		"name": "Highland",
		"state": "MD",
		"country": "US",
		"coord": {
			"lon": -76.957481,
			"lat": 39.179001
		}
	},
	{
		"id": 4358066,
		"name": "Hillandale",
		"state": "MD",
		"country": "US",
		"coord": {
			"lon": -76.974136,
			"lat": 39.026501
		}
	},
	{
		"id": 4358082,
		"name": "Hillcrest Heights",
		"state": "MD",
		"country": "US",
		"coord": {
			"lon": -76.959419,
			"lat": 38.83289
		}
	},
	{
		"id": 4358144,
		"name": "Hillsmere Shores",
		"state": "MD",
		"country": "US",
		"coord": {
			"lon": -76.494957,
			"lat": 38.940109
		}
	},
	{
		"id": 4358598,
		"name": "Howard County",
		"state": "MD",
		"country": "US",
		"coord": {
			"lon": -76.933029,
			"lat": 39.250381
		}
	},
	{
		"id": 4358671,
		"name": "Hughesville",
		"state": "MD",
		"country": "US",
		"coord": {
			"lon": -76.783859,
			"lat": 38.532619
		}
	},
	{
		"id": 4358701,
		"name": "Hunt Valley",
		"state": "MD",
		"country": "US",
		"coord": {
			"lon": -76.641083,
			"lat": 39.499828
		}
	},
	{
		"id": 4358772,
		"name": "Huntingtown",
		"state": "MD",
		"country": "US",
		"coord": {
			"lon": -76.613022,
			"lat": 38.615952
		}
	},
	{
		"id": 4358779,
		"name": "Huntingtown Town Center",
		"state": "MD",
		"country": "US",
		"coord": {
			"lon": -76.616074,
			"lat": 38.620949
		}
	},
	{
		"id": 4358790,
		"name": "Hurlock",
		"state": "MD",
		"country": "US",
		"coord": {
			"lon": -75.854378,
			"lat": 38.624279
		}
	},
	{
		"id": 4358821,
		"name": "Hyattsville",
		"state": "MD",
		"country": "US",
		"coord": {
			"lon": -76.945534,
			"lat": 38.95594
		}
	},
	{
		"id": 4358864,
		"name": "Ilchester",
		"state": "MD",
		"country": "US",
		"coord": {
			"lon": -76.764687,
			"lat": 39.250938
		}
	},
	{
		"id": 4358916,
		"name": "Indian Head",
		"state": "MD",
		"country": "US",
		"coord": {
			"lon": -77.162201,
			"lat": 38.600121
		}
	},
	{
		"id": 4359359,
		"name": "Jarrettsville",
		"state": "MD",
		"country": "US",
		"coord": {
			"lon": -76.477737,
			"lat": 39.604549
		}
	},
	{
		"id": 4359377,
		"name": "Jefferson",
		"state": "MD",
		"country": "US",
		"coord": {
			"lon": -77.531647,
			"lat": 39.362049
		}
	},
	{
		"id": 4359489,
		"name": "John Town",
		"state": "MD",
		"country": "US",
		"coord": {
			"lon": -75.918549,
			"lat": 39.425671
		}
	},
	{
		"id": 4359619,
		"name": "Joppatowne",
		"state": "MD",
		"country": "US",
		"coord": {
			"lon": -76.35524,
			"lat": 39.45789
		}
	},
	{
		"id": 4359694,
		"name": "Keedysville",
		"state": "MD",
		"country": "US",
		"coord": {
			"lon": -77.699707,
			"lat": 39.48621
		}
	},
	{
		"id": 4359721,
		"name": "Kemp Mill",
		"state": "MD",
		"country": "US",
		"coord": {
			"lon": -77.019142,
			"lat": 39.039001
		}
	},
	{
		"id": 4359760,
		"name": "Kensington",
		"state": "MD",
		"country": "US",
		"coord": {
			"lon": -77.07637,
			"lat": 39.025669
		}
	},
	{
		"id": 4359858,
		"name": "Kettering",
		"state": "MD",
		"country": "US",
		"coord": {
			"lon": -76.81469,
			"lat": 38.88456
		}
	},
	{
		"id": 4359981,
		"name": "Kingstown",
		"state": "MD",
		"country": "US",
		"coord": {
			"lon": -76.051331,
			"lat": 39.20483
		}
	},
	{
		"id": 4359984,
		"name": "Kingsville",
		"state": "MD",
		"country": "US",
		"coord": {
			"lon": -76.41774,
			"lat": 39.448719
		}
	},
	{
		"id": 4360102,
		"name": "La Plaine Estates",
		"state": "MD",
		"country": "US",
		"coord": {
			"lon": -75.917999,
			"lat": 39.577061
		}
	},
	{
		"id": 4360103,
		"name": "La Plata",
		"state": "MD",
		"country": "US",
		"coord": {
			"lon": -76.97525,
			"lat": 38.529289
		}
	},
	{
		"id": 4360113,
		"name": "La Vale",
		"state": "MD",
		"country": "US",
		"coord": {
			"lon": -78.810577,
			"lat": 39.65564
		}
	},
	{
		"id": 4360138,
		"name": "Lake Arbor",
		"state": "MD",
		"country": "US",
		"coord": {
			"lon": -76.829689,
			"lat": 38.90789
		}
	},
	{
		"id": 4360201,
		"name": "Lake Shore",
		"state": "MD",
		"country": "US",
		"coord": {
			"lon": -76.484962,
			"lat": 39.107052
		}
	},
	{
		"id": 4360287,
		"name": "Landover",
		"state": "MD",
		"country": "US",
		"coord": {
			"lon": -76.896637,
			"lat": 38.933998
		}
	},
	{
		"id": 4360288,
		"name": "Landover Hills",
		"state": "MD",
		"country": "US",
		"coord": {
			"lon": -76.892197,
			"lat": 38.943169
		}
	},
	{
		"id": 4360314,
		"name": "Langley Park",
		"state": "MD",
		"country": "US",
		"coord": {
			"lon": -76.981361,
			"lat": 38.98872
		}
	},
	{
		"id": 4360321,
		"name": "Lanham",
		"state": "MD",
		"country": "US",
		"coord": {
			"lon": -76.861923,
			"lat": 38.96706
		}
	},
	{
		"id": 4360328,
		"name": "Lansdowne",
		"state": "MD",
		"country": "US",
		"coord": {
			"lon": -76.660522,
			"lat": 39.24511
		}
	},
	{
		"id": 4360345,
		"name": "Largo",
		"state": "MD",
		"country": "US",
		"coord": {
			"lon": -76.830254,
			"lat": 38.89761
		}
	},
	{
		"id": 4360369,
		"name": "Laurel",
		"state": "MD",
		"country": "US",
		"coord": {
			"lon": -76.848312,
			"lat": 39.099281
		}
	},
	{
		"id": 4360443,
		"name": "Layhill",
		"state": "MD",
		"country": "US",
		"coord": {
			"lon": -77.044418,
			"lat": 39.092331
		}
	},
	{
		"id": 4360551,
		"name": "Leonardtown",
		"state": "MD",
		"country": "US",
		"coord": {
			"lon": -76.635788,
			"lat": 38.291241
		}
	},
	{
		"id": 4360564,
		"name": "Lereley",
		"state": "MD",
		"country": "US",
		"coord": {
			"lon": -76.402458,
			"lat": 39.405659
		}
	},
	{
		"id": 4360592,
		"name": "Lexington Park",
		"state": "MD",
		"country": "US",
		"coord": {
			"lon": -76.453842,
			"lat": 38.266788
		}
	},
	{
		"id": 4360700,
		"name": "Linganore",
		"state": "MD",
		"country": "US",
		"coord": {
			"lon": -77.208038,
			"lat": 39.44038
		}
	},
	{
		"id": 4360713,
		"name": "Linthicum",
		"state": "MD",
		"country": "US",
		"coord": {
			"lon": -76.652748,
			"lat": 39.205109
		}
	},
	{
		"id": 4360938,
		"name": "Loch Lynn Heights",
		"state": "MD",
		"country": "US",
		"coord": {
			"lon": -79.3731,
			"lat": 39.39315
		}
	},
	{
		"id": 4360954,
		"name": "Lochearn",
		"state": "MD",
		"country": "US",
		"coord": {
			"lon": -76.722191,
			"lat": 39.34066
		}
	},
	{
		"id": 4361085,
		"name": "Lonaconing",
		"state": "MD",
		"country": "US",
		"coord": {
			"lon": -78.980301,
			"lat": 39.565922
		}
	},
	{
		"id": 4361094,
		"name": "Londontowne",
		"state": "MD",
		"country": "US",
		"coord": {
			"lon": -76.549408,
			"lat": 38.933449
		}
	},
	{
		"id": 4361109,
		"name": "Long Beach",
		"state": "MD",
		"country": "US",
		"coord": {
			"lon": -76.468842,
			"lat": 38.46096
		}
	},
	{
		"id": 4361365,
		"name": "Lusby",
		"state": "MD",
		"country": "US",
		"coord": {
			"lon": -76.455231,
			"lat": 38.410679
		}
	},
	{
		"id": 4361379,
		"name": "Lutherville",
		"state": "MD",
		"country": "US",
		"coord": {
			"lon": -76.626083,
			"lat": 39.421219
		}
	},
	{
		"id": 4361547,
		"name": "Manchester",
		"state": "MD",
		"country": "US",
		"coord": {
			"lon": -76.884979,
			"lat": 39.661209
		}
	},
	{
		"id": 4361701,
		"name": "Marlboro Meadows",
		"state": "MD",
		"country": "US",
		"coord": {
			"lon": -76.714973,
			"lat": 38.83622
		}
	},
	{
		"id": 4361721,
		"name": "Marlow Heights",
		"state": "MD",
		"country": "US",
		"coord": {
			"lon": -76.951637,
			"lat": 38.83345
		}
	},
	{
		"id": 4361725,
		"name": "Marlton",
		"state": "MD",
		"country": "US",
		"coord": {
			"lon": -76.78997,
			"lat": 38.773731
		}
	},
	{
		"id": 4361831,
		"name": "Maryland City",
		"state": "MD",
		"country": "US",
		"coord": {
			"lon": -76.817749,
			"lat": 39.092049
		}
	},
	{
		"id": 4361885,
		"name": "Maryland",
		"state": "MD",
		"country": "US",
		"coord": {
			"lon": -76.749969,
			"lat": 39.000389
		}
	},
	{
		"id": 4361943,
		"name": "Mattapanient (historical)",
		"state": "MD",
		"country": "US",
		"coord": {
			"lon": -76.408012,
			"lat": 38.287621
		}
	},
	{
		"id": 4361969,
		"name": "Maugansville",
		"state": "MD",
		"country": "US",
		"coord": {
			"lon": -77.74472,
			"lat": 39.692871
		}
	},
	{
		"id": 4362001,
		"name": "Mayo",
		"state": "MD",
		"country": "US",
		"coord": {
			"lon": -76.511902,
			"lat": 38.887611
		}
	},
	{
		"id": 4362009,
		"name": "Mays Chapel",
		"state": "MD",
		"country": "US",
		"coord": {
			"lon": -76.649406,
			"lat": 39.433159
		}
	},
	{
		"id": 4362173,
		"name": "Mechanicsville",
		"state": "MD",
		"country": "US",
		"coord": {
			"lon": -76.743851,
			"lat": 38.442902
		}
	},
	{
		"id": 4362197,
		"name": "Mellwood",
		"state": "MD",
		"country": "US",
		"coord": {
			"lon": -76.824142,
			"lat": 38.81039
		}
	},
	{
		"id": 4362344,
		"name": "Middle River",
		"state": "MD",
		"country": "US",
		"coord": {
			"lon": -76.439407,
			"lat": 39.33427
		}
	},
	{
		"id": 4362372,
		"name": "Middletown",
		"state": "MD",
		"country": "US",
		"coord": {
			"lon": -77.544708,
			"lat": 39.44371
		}
	},
	{
		"id": 4362438,
		"name": "Milford Mill",
		"state": "MD",
		"country": "US",
		"coord": {
			"lon": -76.769974,
			"lat": 39.347881
		}
	},
	{
		"id": 4362624,
		"name": "Mitchellville",
		"state": "MD",
		"country": "US",
		"coord": {
			"lon": -76.742752,
			"lat": 38.92511
		}
	},
	{
		"id": 4362716,
		"name": "Montgomery County",
		"state": "MD",
		"country": "US",
		"coord": {
			"lon": -77.199699,
			"lat": 39.150108
		}
	},
	{
		"id": 4362743,
		"name": "Montgomery Village",
		"state": "MD",
		"country": "US",
		"coord": {
			"lon": -77.195259,
			"lat": 39.176769
		}
	},
	{
		"id": 4362837,
		"name": "Morningside",
		"state": "MD",
		"country": "US",
		"coord": {
			"lon": -76.891357,
			"lat": 38.830109
		}
	},
	{
		"id": 4362849,
		"name": "Morris Mobile Home Park",
		"state": "MD",
		"country": "US",
		"coord": {
			"lon": -75.128799,
			"lat": 38.316502
		}
	},
	{
		"id": 4362882,
		"name": "Mount Airy",
		"state": "MD",
		"country": "US",
		"coord": {
			"lon": -77.154701,
			"lat": 39.376209
		}
	},
	{
		"id": 4363124,
		"name": "Mount Rainier",
		"state": "MD",
		"country": "US",
		"coord": {
			"lon": -76.964981,
			"lat": 38.941502
		}
	},
	{
		"id": 4363282,
		"name": "Mountain Lake Park",
		"state": "MD",
		"country": "US",
		"coord": {
			"lon": -79.381706,
			"lat": 39.39843
		}
	},
	{
		"id": 4363436,
		"name": "Myersville",
		"state": "MD",
		"country": "US",
		"coord": {
			"lon": -77.566383,
			"lat": 39.5051
		}
	},
	{
		"id": 4363611,
		"name": "New Carrollton",
		"state": "MD",
		"country": "US",
		"coord": {
			"lon": -76.879967,
			"lat": 38.96983
		}
	},
	{
		"id": 4363692,
		"name": "New Windsor",
		"state": "MD",
		"country": "US",
		"coord": {
			"lon": -77.10804,
			"lat": 39.542049
		}
	},
	{
		"id": 4363831,
		"name": "North Beach",
		"state": "MD",
		"country": "US",
		"coord": {
			"lon": -76.531067,
			"lat": 38.70734
		}
	},
	{
		"id": 4363836,
		"name": "North Bel Air",
		"state": "MD",
		"country": "US",
		"coord": {
			"lon": -76.354958,
			"lat": 39.539829
		}
	},
	{
		"id": 4363843,
		"name": "North Bethesda",
		"state": "MD",
		"country": "US",
		"coord": {
			"lon": -77.118874,
			"lat": 39.044552
		}
	},
	{
		"id": 4363889,
		"name": "North East",
		"state": "MD",
		"country": "US",
		"coord": {
			"lon": -75.94133,
			"lat": 39.600109
		}
	},
	{
		"id": 4363960,
		"name": "North Kensington",
		"state": "MD",
		"country": "US",
		"coord": {
			"lon": -77.072479,
			"lat": 39.030392
		}
	},
	{
		"id": 4363964,
		"name": "North Laurel",
		"state": "MD",
		"country": "US",
		"coord": {
			"lon": -76.870529,
			"lat": 39.139
		}
	},
	{
		"id": 4363990,
		"name": "North Potomac",
		"state": "MD",
		"country": "US",
		"coord": {
			"lon": -77.264977,
			"lat": 39.08289
		}
	},
	{
		"id": 4364231,
		"name": "Oakland",
		"state": "MD",
		"country": "US",
		"coord": {
			"lon": -79.406708,
			"lat": 39.407871
		}
	},
	{
		"id": 4364312,
		"name": "Ocean City",
		"state": "MD",
		"country": "US",
		"coord": {
			"lon": -75.084908,
			"lat": 38.336498
		}
	},
	{
		"id": 4364326,
		"name": "Ocean Pines",
		"state": "MD",
		"country": "US",
		"coord": {
			"lon": -75.155739,
			"lat": 38.39539
		}
	},
	{
		"id": 4364362,
		"name": "Odenton",
		"state": "MD",
		"country": "US",
		"coord": {
			"lon": -76.700249,
			"lat": 39.084
		}
	},
	{
		"id": 4364369,
		"name": "Olacin",
		"state": "MD",
		"country": "US",
		"coord": {
			"lon": -77.361099,
			"lat": 39.405659
		}
	},
	{
		"id": 4364519,
		"name": "Oliver Beach",
		"state": "MD",
		"country": "US",
		"coord": {
			"lon": -76.342743,
			"lat": 39.37289
		}
	},
	{
		"id": 4364537,
		"name": "Olney",
		"state": "MD",
		"country": "US",
		"coord": {
			"lon": -77.066917,
			"lat": 39.15316
		}
	},
	{
		"id": 4364690,
		"name": "Overlea",
		"state": "MD",
		"country": "US",
		"coord": {
			"lon": -76.520523,
			"lat": 39.363441
		}
	},
	{
		"id": 4364721,
		"name": "Owings",
		"state": "MD",
		"country": "US",
		"coord": {
			"lon": -76.601349,
			"lat": 38.717621
		}
	},
	{
		"id": 4364727,
		"name": "Owings Mills",
		"state": "MD",
		"country": "US",
		"coord": {
			"lon": -76.780251,
			"lat": 39.419552
		}
	},
	{
		"id": 4364759,
		"name": "Oxon Hill",
		"state": "MD",
		"country": "US",
		"coord": {
			"lon": -76.9897,
			"lat": 38.803452
		}
	},
	{
		"id": 4364946,
		"name": "Parkville",
		"state": "MD",
		"country": "US",
		"coord": {
			"lon": -76.539688,
			"lat": 39.377331
		}
	},
	{
		"id": 4364964,
		"name": "Parole",
		"state": "MD",
		"country": "US",
		"coord": {
			"lon": -76.530518,
			"lat": 38.979561
		}
	},
	{
		"id": 4364990,
		"name": "Pasadena",
		"state": "MD",
		"country": "US",
		"coord": {
			"lon": -76.571083,
			"lat": 39.10733
		}
	},
	{
		"id": 4365227,
		"name": "Perry Hall",
		"state": "MD",
		"country": "US",
		"coord": {
			"lon": -76.46357,
			"lat": 39.412609
		}
	},
	{
		"id": 4365254,
		"name": "Perryman",
		"state": "MD",
		"country": "US",
		"coord": {
			"lon": -76.204399,
			"lat": 39.469551
		}
	},
	{
		"id": 4365264,
		"name": "Perryville",
		"state": "MD",
		"country": "US",
		"coord": {
			"lon": -76.071342,
			"lat": 39.560108
		}
	},
	{
		"id": 4365387,
		"name": "Pikesville",
		"state": "MD",
		"country": "US",
		"coord": {
			"lon": -76.722473,
			"lat": 39.374271
		}
	},
	{
		"id": 4365634,
		"name": "Pittsville",
		"state": "MD",
		"country": "US",
		"coord": {
			"lon": -75.412971,
			"lat": 38.39539
		}
	},
	{
		"id": 4365686,
		"name": "Pleasant Hills",
		"state": "MD",
		"country": "US",
		"coord": {
			"lon": -76.394127,
			"lat": 39.479549
		}
	},
	{
		"id": 4365766,
		"name": "Pocomoke City",
		"state": "MD",
		"country": "US",
		"coord": {
			"lon": -75.567978,
			"lat": 38.07568
		}
	},
	{
		"id": 4365812,
		"name": "Point of Rocks",
		"state": "MD",
		"country": "US",
		"coord": {
			"lon": -77.539146,
			"lat": 39.27594
		}
	},
	{
		"id": 4365877,
		"name": "Poolesville",
		"state": "MD",
		"country": "US",
		"coord": {
			"lon": -77.416931,
			"lat": 39.145939
		}
	},
	{
		"id": 4366001,
		"name": "Potomac",
		"state": "MD",
		"country": "US",
		"coord": {
			"lon": -77.208588,
			"lat": 39.018169
		}
	},
	{
		"id": 4366015,
		"name": "Potomac Heights",
		"state": "MD",
		"country": "US",
		"coord": {
			"lon": -77.140533,
			"lat": 38.60873
		}
	},
	{
		"id": 4366030,
		"name": "Potomac Park",
		"state": "MD",
		"country": "US",
		"coord": {
			"lon": -78.805847,
			"lat": 39.611759
		}
	},
	{
		"id": 4366159,
		"name": "Prince Frederick",
		"state": "MD",
		"country": "US",
		"coord": {
			"lon": -76.584396,
			"lat": 38.540401
		}
	},
	{
		"id": 4366164,
		"name": "Prince George's County",
		"state": "MD",
		"country": "US",
		"coord": {
			"lon": -76.849693,
			"lat": 38.83345
		}
	},
	{
		"id": 4366176,
		"name": "Princess Anne",
		"state": "MD",
		"country": "US",
		"coord": {
			"lon": -75.692429,
			"lat": 38.2029
		}
	},
	{
		"id": 4366270,
		"name": "Pumphrey",
		"state": "MD",
		"country": "US",
		"coord": {
			"lon": -76.637192,
			"lat": 39.217331
		}
	},
	{
		"id": 4366476,
		"name": "Randallstown",
		"state": "MD",
		"country": "US",
		"coord": {
			"lon": -76.79525,
			"lat": 39.367329
		}
	},
	{
		"id": 4366593,
		"name": "Redland",
		"state": "MD",
		"country": "US",
		"coord": {
			"lon": -77.14415,
			"lat": 39.14539
		}
	},
	{
		"id": 4366647,
		"name": "Reisterstown",
		"state": "MD",
		"country": "US",
		"coord": {
			"lon": -76.829422,
			"lat": 39.469551
		}
	},
	{
		"id": 4366772,
		"name": "Ridgely",
		"state": "MD",
		"country": "US",
		"coord": {
			"lon": -75.884377,
			"lat": 38.947891
		}
	},
	{
		"id": 4366852,
		"name": "Rising Sun",
		"state": "MD",
		"country": "US",
		"coord": {
			"lon": -76.062729,
			"lat": 39.697891
		}
	},
	{
		"id": 4366877,
		"name": "Riva",
		"state": "MD",
		"country": "US",
		"coord": {
			"lon": -76.578018,
			"lat": 38.952061
		}
	},
	{
		"id": 4366919,
		"name": "Riverdale Park",
		"state": "MD",
		"country": "US",
		"coord": {
			"lon": -76.931641,
			"lat": 38.96344
		}
	},
	{
		"id": 4366929,
		"name": "Riverside",
		"state": "MD",
		"country": "US",
		"coord": {
			"lon": -76.241341,
			"lat": 39.473721
		}
	},
	{
		"id": 4366930,
		"name": "Riverside",
		"state": "MD",
		"country": "US",
		"coord": {
			"lon": -76.885246,
			"lat": 39.173439
		}
	},
	{
		"id": 4366966,
		"name": "Riviera Beach",
		"state": "MD",
		"country": "US",
		"coord": {
			"lon": -76.508018,
			"lat": 39.166779
		}
	},
	{
		"id": 4367034,
		"name": "Robinwood",
		"state": "MD",
		"country": "US",
		"coord": {
			"lon": -76.514679,
			"lat": 38.954281
		}
	},
	{
		"id": 4367035,
		"name": "Robinwood",
		"state": "MD",
		"country": "US",
		"coord": {
			"lon": -77.656937,
			"lat": 39.637039
		}
	},
	{
		"id": 4367036,
		"name": "Robinwood",
		"state": "",
		"country": "US",
		"coord": {
			"lon": -77.662498,
			"lat": 39.625
		}
	},
	{
		"id": 4367081,
		"name": "Rock Hall",
		"state": "MD",
		"country": "US",
		"coord": {
			"lon": -76.234947,
			"lat": 39.138168
		}
	},
	{
		"id": 4367175,
		"name": "Rockville",
		"state": "MD",
		"country": "US",
		"coord": {
			"lon": -77.152763,
			"lat": 39.084
		}
	},
	{
		"id": 4367344,
		"name": "Rosaryville",
		"state": "MD",
		"country": "US",
		"coord": {
			"lon": -76.809692,
			"lat": 38.756779
		}
	},
	{
		"id": 4367372,
		"name": "Rosedale",
		"state": "MD",
		"country": "US",
		"coord": {
			"lon": -76.515518,
			"lat": 39.32011
		}
	},
	{
		"id": 4367417,
		"name": "Rossmoor",
		"state": "MD",
		"country": "US",
		"coord": {
			"lon": -77.071091,
			"lat": 39.103722
		}
	},
	{
		"id": 4367419,
		"name": "Rossville",
		"state": "MD",
		"country": "US",
		"coord": {
			"lon": -76.479683,
			"lat": 39.33844
		}
	},
	{
		"id": 4367538,
		"name": "Rushville",
		"state": "MD",
		"country": "US",
		"coord": {
			"lon": -77.327477,
			"lat": 39.070389
		}
	},
	{
		"id": 4367734,
		"name": "Saint Charles",
		"state": "MD",
		"country": "US",
		"coord": {
			"lon": -76.938583,
			"lat": 38.603168
		}
	},
	{
		"id": 4367872,
		"name": "Saint James",
		"state": "MD",
		"country": "US",
		"coord": {
			"lon": -77.758049,
			"lat": 39.562599
		}
	},
	{
		"id": 4368320,
		"name": "Saint Mary's County",
		"state": "MD",
		"country": "US",
		"coord": {
			"lon": -76.616348,
			"lat": 38.300129
		}
	},
	{
		"id": 4368380,
		"name": "Saint Michaels",
		"state": "MD",
		"country": "US",
		"coord": {
			"lon": -76.224388,
			"lat": 38.785118
		}
	},
	{
		"id": 4368711,
		"name": "Salisbury",
		"state": "MD",
		"country": "US",
		"coord": {
			"lon": -75.599373,
			"lat": 38.360668
		}
	},
	{
		"id": 4368879,
		"name": "Savage",
		"state": "MD",
		"country": "US",
		"coord": {
			"lon": -76.82386,
			"lat": 39.13789
		}
	},
	{
		"id": 4369076,
		"name": "Seabrook",
		"state": "MD",
		"country": "US",
		"coord": {
			"lon": -76.844971,
			"lat": 38.967892
		}
	},
	{
		"id": 4369086,
		"name": "Seat Pleasant",
		"state": "MD",
		"country": "US",
		"coord": {
			"lon": -76.906639,
			"lat": 38.896221
		}
	},
	{
		"id": 4369125,
		"name": "Selby-on-the-Bay",
		"state": "MD",
		"country": "US",
		"coord": {
			"lon": -76.522461,
			"lat": 38.916222
		}
	},
	{
		"id": 4369190,
		"name": "Severn",
		"state": "MD",
		"country": "US",
		"coord": {
			"lon": -76.698303,
			"lat": 39.137051
		}
	},
	{
		"id": 4369224,
		"name": "Severna Park",
		"state": "MD",
		"country": "US",
		"coord": {
			"lon": -76.545242,
			"lat": 39.070389
		}
	},
	{
		"id": 4369286,
		"name": "Shady Side",
		"state": "MD",
		"country": "US",
		"coord": {
			"lon": -76.512177,
			"lat": 38.841782
		}
	},
	{
		"id": 4369571,
		"name": "Silver Hill",
		"state": "MD",
		"country": "US",
		"coord": {
			"lon": -76.945808,
			"lat": 38.841782
		}
	},
	{
		"id": 4369596,
		"name": "Silver Spring",
		"state": "MD",
		"country": "US",
		"coord": {
			"lon": -77.026093,
			"lat": 38.990669
		}
	},
	{
		"id": 4369758,
		"name": "Smithsburg",
		"state": "MD",
		"country": "US",
		"coord": {
			"lon": -77.572769,
			"lat": 39.654819
		}
	},
	{
		"id": 4369807,
		"name": "Snow Hill",
		"state": "MD",
		"country": "US",
		"coord": {
			"lon": -75.3927,
			"lat": 38.177059
		}
	},
	{
		"id": 4369872,
		"name": "Solomons",
		"state": "MD",
		"country": "US",
		"coord": {
			"lon": -76.454117,
			"lat": 38.318459
		}
	},
	{
		"id": 4369891,
		"name": "Somerset",
		"state": "MD",
		"country": "US",
		"coord": {
			"lon": -77.096092,
			"lat": 38.965939
		}
	},
	{
		"id": 4369928,
		"name": "South Bel Air",
		"state": "MD",
		"country": "US",
		"coord": {
			"lon": -76.337463,
			"lat": 39.533161
		}
	},
	{
		"id": 4369964,
		"name": "South Gate",
		"state": "MD",
		"country": "US",
		"coord": {
			"lon": -76.625801,
			"lat": 39.129002
		}
	},
	{
		"id": 4369976,
		"name": "South Kensington",
		"state": "MD",
		"country": "US",
		"coord": {
			"lon": -77.079979,
			"lat": 39.019001
		}
	},
	{
		"id": 4369978,
		"name": "South Laurel",
		"state": "MD",
		"country": "US",
		"coord": {
			"lon": -76.85025,
			"lat": 39.069832
		}
	},
	{
		"id": 4370109,
		"name": "Spencerville",
		"state": "MD",
		"country": "US",
		"coord": {
			"lon": -76.97831,
			"lat": 39.114269
		}
	},
	{
		"id": 4370201,
		"name": "Spring Ridge",
		"state": "MD",
		"country": "US",
		"coord": {
			"lon": -77.352478,
			"lat": 39.401489
		}
	},
	{
		"id": 4370219,
		"name": "Springdale",
		"state": "MD",
		"country": "US",
		"coord": {
			"lon": -76.83886,
			"lat": 38.937611
		}
	},
	{
		"id": 4370366,
		"name": "Stevensville",
		"state": "MD",
		"country": "US",
		"coord": {
			"lon": -76.3144,
			"lat": 38.980671
		}
	},
	{
		"id": 4370616,
		"name": "Suitland",
		"state": "MD",
		"country": "US",
		"coord": {
			"lon": -76.923859,
			"lat": 38.848721
		}
	},
	{
		"id": 4370854,
		"name": "Sykesville",
		"state": "MD",
		"country": "US",
		"coord": {
			"lon": -76.967758,
			"lat": 39.373711
		}
	},
	{
		"id": 4370890,
		"name": "Takoma Park",
		"state": "MD",
		"country": "US",
		"coord": {
			"lon": -77.007477,
			"lat": 38.97789
		}
	},
	{
		"id": 4370904,
		"name": "Talbot County",
		"state": "MD",
		"country": "US",
		"coord": {
			"lon": -76.083,
			"lat": 38.766781
		}
	},
	{
		"id": 4370931,
		"name": "Taneytown",
		"state": "MD",
		"country": "US",
		"coord": {
			"lon": -77.174431,
			"lat": 39.657879
		}
	},
	{
		"id": 4371053,
		"name": "Temple Hills",
		"state": "MD",
		"country": "US",
		"coord": {
			"lon": -76.945534,
			"lat": 38.813999
		}
	},
	{
		"id": 4371334,
		"name": "Thurmont",
		"state": "MD",
		"country": "US",
		"coord": {
			"lon": -77.41082,
			"lat": 39.623711
		}
	},
	{
		"id": 4371420,
		"name": "Timonium",
		"state": "MD",
		"country": "US",
		"coord": {
			"lon": -76.61969,
			"lat": 39.43705
		}
	},
	{
		"id": 4371582,
		"name": "Towson",
		"state": "MD",
		"country": "US",
		"coord": {
			"lon": -76.601913,
			"lat": 39.401501
		}
	},
	{
		"id": 4371620,
		"name": "Trappe",
		"state": "MD",
		"country": "US",
		"coord": {
			"lon": -76.057999,
			"lat": 38.658451
		}
	},
	{
		"id": 4371635,
		"name": "Travilah",
		"state": "MD",
		"country": "US",
		"coord": {
			"lon": -77.263039,
			"lat": 39.069
		}
	},
	{
		"id": 4372137,
		"name": "University Park",
		"state": "MD",
		"country": "US",
		"coord": {
			"lon": -76.941917,
			"lat": 38.97039
		}
	},
	{
		"id": 4372183,
		"name": "Upper Marlboro",
		"state": "MD",
		"country": "US",
		"coord": {
			"lon": -76.749687,
			"lat": 38.815948
		}
	},
	{
		"id": 4372201,
		"name": "Urbana",
		"state": "MD",
		"country": "US",
		"coord": {
			"lon": -77.351372,
			"lat": 39.325939
		}
	},
	{
		"id": 4372589,
		"name": "Wakely Terrace",
		"state": "MD",
		"country": "US",
		"coord": {
			"lon": -76.334961,
			"lat": 39.525661
		}
	},
	{
		"id": 4372599,
		"name": "Waldorf",
		"state": "MD",
		"country": "US",
		"coord": {
			"lon": -76.93914,
			"lat": 38.624561
		}
	},
	{
		"id": 4372623,
		"name": "Walker Mill",
		"state": "MD",
		"country": "US",
		"coord": {
			"lon": -76.888313,
			"lat": 38.875389
		}
	},
	{
		"id": 4372630,
		"name": "Walkersville",
		"state": "MD",
		"country": "US",
		"coord": {
			"lon": -77.351929,
			"lat": 39.48621
		}
	},
	{
		"id": 4372777,
		"name": "Washington County",
		"state": "MD",
		"country": "US",
		"coord": {
			"lon": -77.76638,
			"lat": 39.61676
		}
	},
	{
		"id": 4372988,
		"name": "Wellham Crossroads (historical)",
		"state": "MD",
		"country": "US",
		"coord": {
			"lon": -76.666634,
			"lat": 39.179272
		}
	},
	{
		"id": 4373104,
		"name": "West Elkridge",
		"state": "MD",
		"country": "US",
		"coord": {
			"lon": -76.726921,
			"lat": 39.20705
		}
	},
	{
		"id": 4373136,
		"name": "West Laurel",
		"state": "MD",
		"country": "US",
		"coord": {
			"lon": -76.899696,
			"lat": 39.101219
		}
	},
	{
		"id": 4373153,
		"name": "West Ocean City",
		"state": "MD",
		"country": "US",
		"coord": {
			"lon": -75.10685,
			"lat": 38.331501
		}
	},
	{
		"id": 4373225,
		"name": "Westernport",
		"state": "MD",
		"country": "US",
		"coord": {
			"lon": -79.044746,
			"lat": 39.485371
		}
	},
	{
		"id": 4373238,
		"name": "Westminster",
		"state": "MD",
		"country": "US",
		"coord": {
			"lon": -76.995811,
			"lat": 39.575378
		}
	},
	{
		"id": 4373275,
		"name": "Westphalia",
		"state": "MD",
		"country": "US",
		"coord": {
			"lon": -76.811081,
			"lat": 38.84539
		}
	},
	{
		"id": 4373349,
		"name": "Wheaton",
		"state": "MD",
		"country": "US",
		"coord": {
			"lon": -77.05526,
			"lat": 39.039829
		}
	},
	{
		"id": 4373426,
		"name": "White Marsh",
		"state": "MD",
		"country": "US",
		"coord": {
			"lon": -76.432182,
			"lat": 39.38372
		}
	},
	{
		"id": 4373449,
		"name": "White Oak",
		"state": "MD",
		"country": "US",
		"coord": {
			"lon": -76.993027,
			"lat": 39.039829
		}
	},
	{
		"id": 4373554,
		"name": "Wicomico County",
		"state": "MD",
		"country": "US",
		"coord": {
			"lon": -75.599648,
			"lat": 38.366779
		}
	},
	{
		"id": 4373719,
		"name": "Williamsport",
		"state": "MD",
		"country": "US",
		"coord": {
			"lon": -77.820549,
			"lat": 39.600651
		}
	},
	{
		"id": 4374054,
		"name": "Woodlawn",
		"state": "MD",
		"country": "US",
		"coord": {
			"lon": -76.728027,
			"lat": 39.32288
		}
	},
	{
		"id": 4374056,
		"name": "Woodlawn",
		"state": "MD",
		"country": "US",
		"coord": {
			"lon": -76.891357,
			"lat": 38.949558
		}
	},
	{
		"id": 4374100,
		"name": "Woodmore",
		"state": "MD",
		"country": "US",
		"coord": {
			"lon": -76.803032,
			"lat": 38.921219
		}
	},
	{
		"id": 4374122,
		"name": "Woodsboro",
		"state": "MD",
		"country": "US",
		"coord": {
			"lon": -77.314713,
			"lat": 39.533161
		}
	},
	{
		"id": 4374180,
		"name": "Worcester County",
		"state": "MD",
		"country": "US",
		"coord": {
			"lon": -75.382973,
			"lat": 38.200119
		}
	},
	{
		"id": 4374234,
		"name": "Wrights Trailer Village",
		"state": "MD",
		"country": "US",
		"coord": {
			"lon": -76.195793,
			"lat": 39.487049
		}
	},
	{
		"id": 4374497,
		"name": "Adrian",
		"state": "MO",
		"country": "US",
		"coord": {
			"lon": -94.351624,
			"lat": 38.397518
		}
	},
	{
		"id": 4374502,
		"name": "Advance",
		"state": "MO",
		"country": "US",
		"coord": {
			"lon": -89.910652,
			"lat": 37.1045
		}
	},
	{
		"id": 4374513,
		"name": "Affton",
		"state": "MO",
		"country": "US",
		"coord": {
			"lon": -90.333168,
			"lat": 38.55061
		}
	},
	{
		"id": 4374538,
		"name": "Airport Drive",
		"state": "MO",
		"country": "US",
		"coord": {
			"lon": -94.51078,
			"lat": 37.142559
		}
	},
	{
		"id": 4374557,
		"name": "Albany",
		"state": "MO",
		"country": "US",
		"coord": {
			"lon": -94.113281,
			"lat": 39.223339
		}
	},
	{
		"id": 4374730,
		"name": "Alton",
		"state": "MO",
		"country": "US",
		"coord": {
			"lon": -91.3993,
			"lat": 36.694229
		}
	},
	{
		"id": 4374798,
		"name": "Anderson",
		"state": "MO",
		"country": "US",
		"coord": {
			"lon": -94.44355,
			"lat": 36.650631
		}
	},
	{
		"id": 4374993,
		"name": "Appleton City",
		"state": "MO",
		"country": "US",
		"coord": {
			"lon": -94.029388,
			"lat": 38.190578
		}
	},
	{
		"id": 4375040,
		"name": "Archie",
		"state": "MO",
		"country": "US",
		"coord": {
			"lon": -94.354393,
			"lat": 38.481682
		}
	},
	{
		"id": 4375087,
		"name": "Arnold",
		"state": "MO",
		"country": "US",
		"coord": {
			"lon": -90.377617,
			"lat": 38.432831
		}
	},
	{
		"id": 4375172,
		"name": "Ash Grove",
		"state": "MO",
		"country": "US",
		"coord": {
			"lon": -93.585197,
			"lat": 37.315331
		}
	},
	{
		"id": 4375229,
		"name": "Ashland",
		"state": "MO",
		"country": "US",
		"coord": {
			"lon": -92.257133,
			"lat": 38.774479
		}
	},
	{
		"id": 4375349,
		"name": "Aurora",
		"state": "MO",
		"country": "US",
		"coord": {
			"lon": -93.717979,
			"lat": 36.97089
		}
	},
	{
		"id": 4375383,
		"name": "Ava",
		"state": "MO",
		"country": "US",
		"coord": {
			"lon": -92.660454,
			"lat": 36.952
		}
	},
	{
		"id": 4375663,
		"name": "Ballwin",
		"state": "MO",
		"country": "US",
		"coord": {
			"lon": -90.546227,
			"lat": 38.595051
		}
	},
	{
		"id": 4375832,
		"name": "Barnhart",
		"state": "MO",
		"country": "US",
		"coord": {
			"lon": -90.393448,
			"lat": 38.344219
		}
	},
	{
		"id": 4375979,
		"name": "Battlefield",
		"state": "MO",
		"country": "US",
		"coord": {
			"lon": -93.370193,
			"lat": 37.115608
		}
	},
	{
		"id": 4376350,
		"name": "Bel-Nor",
		"state": "MO",
		"country": "US",
		"coord": {
			"lon": -90.31678,
			"lat": 38.702
		}
	},
	{
		"id": 4376352,
		"name": "Bel-Ridge",
		"state": "MO",
		"country": "US",
		"coord": {
			"lon": -90.325394,
			"lat": 38.709499
		}
	},
	{
		"id": 4376432,
		"name": "Belle",
		"state": "MO",
		"country": "US",
		"coord": {
			"lon": -91.720444,
			"lat": 38.285881
		}
	},
	{
		"id": 4376444,
		"name": "Bellefontaine Neighbors",
		"state": "MO",
		"country": "US",
		"coord": {
			"lon": -90.226501,
			"lat": 38.74033
		}
	},
	{
		"id": 4376482,
		"name": "Belton",
		"state": "MO",
		"country": "US",
		"coord": {
			"lon": -94.531898,
			"lat": 38.811951
		}
	},
	{
		"id": 4376569,
		"name": "Benton",
		"state": "MO",
		"country": "US",
		"coord": {
			"lon": -89.562576,
			"lat": 37.097832
		}
	},
	{
		"id": 4376578,
		"name": "Benton County",
		"state": "MO",
		"country": "US",
		"coord": {
			"lon": -93.300201,
			"lat": 38.300018
		}
	},
	{
		"id": 4376623,
		"name": "Berkeley",
		"state": "MO",
		"country": "US",
		"coord": {
			"lon": -90.33123,
			"lat": 38.754501
		}
	},
	{
		"id": 4376632,
		"name": "Bernie",
		"state": "MO",
		"country": "US",
		"coord": {
			"lon": -89.968697,
			"lat": 36.668941
		}
	},
	{
		"id": 4377158,
		"name": "Billings",
		"state": "MO",
		"country": "US",
		"coord": {
			"lon": -93.552139,
			"lat": 37.067551
		}
	},
	{
		"id": 4377247,
		"name": "Bismarck",
		"state": "MO",
		"country": "US",
		"coord": {
			"lon": -90.624847,
			"lat": 37.769218
		}
	},
	{
		"id": 4377295,
		"name": "Black Jack",
		"state": "MO",
		"country": "US",
		"coord": {
			"lon": -90.267326,
			"lat": 38.793381
		}
	},
	{
		"id": 4377531,
		"name": "Bloomfield",
		"state": "MO",
		"country": "US",
		"coord": {
			"lon": -89.92926,
			"lat": 36.885891
		}
	},
	{
		"id": 4377664,
		"name": "Blue Springs",
		"state": "MO",
		"country": "US",
		"coord": {
			"lon": -94.281609,
			"lat": 39.016949
		}
	},
	{
		"id": 4377835,
		"name": "Bolivar",
		"state": "MO",
		"country": "US",
		"coord": {
			"lon": -93.410469,
			"lat": 37.614479
		}
	},
	{
		"id": 4377913,
		"name": "Bonne Terre",
		"state": "MO",
		"country": "US",
		"coord": {
			"lon": -90.555397,
			"lat": 37.923111
		}
	},
	{
		"id": 4377925,
		"name": "Boone County",
		"state": "MO",
		"country": "US",
		"coord": {
			"lon": -92.333519,
			"lat": 39.033371
		}
	},
	{
		"id": 4377957,
		"name": "Boonville",
		"state": "MO",
		"country": "US",
		"coord": {
			"lon": -92.74324,
			"lat": 38.97364
		}
	},
	{
		"id": 4377999,
		"name": "Bosworth",
		"state": "MO",
		"country": "US",
		"coord": {
			"lon": -93.334648,
			"lat": 39.469742
		}
	},
	{
		"id": 4378027,
		"name": "Bourbon",
		"state": "MO",
		"country": "US",
		"coord": {
			"lon": -91.244034,
			"lat": 38.15477
		}
	},
	{
		"id": 4378070,
		"name": "Bowling Green",
		"state": "MO",
		"country": "US",
		"coord": {
			"lon": -91.195137,
			"lat": 39.341991
		}
	},
	{
		"id": 4378219,
		"name": "Branson",
		"state": "MO",
		"country": "US",
		"coord": {
			"lon": -93.218513,
			"lat": 36.643669
		}
	},
	{
		"id": 4378291,
		"name": "Breckenridge Hills",
		"state": "MO",
		"country": "US",
		"coord": {
			"lon": -90.36734,
			"lat": 38.7145
		}
	},
	{
		"id": 4378312,
		"name": "Brentwood",
		"state": "MO",
		"country": "US",
		"coord": {
			"lon": -90.349281,
			"lat": 38.61755
		}
	},
	{
		"id": 4378391,
		"name": "Bridgeton",
		"state": "MO",
		"country": "US",
		"coord": {
			"lon": -90.411507,
			"lat": 38.766998
		}
	},
	{
		"id": 4378392,
		"name": "Bridgeton Terrace",
		"state": "MO",
		"country": "US",
		"coord": {
			"lon": -90.386513,
			"lat": 38.746441
		}
	},
	{
		"id": 4378488,
		"name": "Brookfield",
		"state": "MO",
		"country": "US",
		"coord": {
			"lon": -93.073532,
			"lat": 39.78447
		}
	},
	{
		"id": 4378897,
		"name": "Buchanan County",
		"state": "MO",
		"country": "US",
		"coord": {
			"lon": -94.766907,
			"lat": 39.650002
		}
	},
	{
		"id": 4378990,
		"name": "Buckner",
		"state": "MO",
		"country": "US",
		"coord": {
			"lon": -94.198563,
			"lat": 39.132511
		}
	},
	{
		"id": 4379025,
		"name": "Buffalo",
		"state": "MO",
		"country": "US",
		"coord": {
			"lon": -93.092407,
			"lat": 37.643929
		}
	},
	{
		"id": 4379124,
		"name": "Bunker Hill",
		"state": "MO",
		"country": "US",
		"coord": {
			"lon": -89.96981,
			"lat": 36.705891
		}
	},
	{
		"id": 4379322,
		"name": "Butler",
		"state": "MO",
		"country": "US",
		"coord": {
			"lon": -94.330513,
			"lat": 38.258629
		}
	},
	{
		"id": 4379332,
		"name": "Butler County",
		"state": "MO",
		"country": "US",
		"coord": {
			"lon": -90.400108,
			"lat": 36.716721
		}
	},
	{
		"id": 4379436,
		"name": "Byrnes Mill",
		"state": "MO",
		"country": "US",
		"coord": {
			"lon": -90.581787,
			"lat": 38.437832
		}
	},
	{
		"id": 4379478,
		"name": "Cabool",
		"state": "MO",
		"country": "US",
		"coord": {
			"lon": -92.101273,
			"lat": 37.12394
		}
	},
	{
		"id": 4379545,
		"name": "California",
		"state": "MO",
		"country": "US",
		"coord": {
			"lon": -92.566582,
			"lat": 38.627529
		}
	},
	{
		"id": 4379567,
		"name": "Callaway County",
		"state": "MO",
		"country": "US",
		"coord": {
			"lon": -91.900177,
			"lat": 38.866711
		}
	},
	{
		"id": 4379611,
		"name": "Calverton Park",
		"state": "MO",
		"country": "US",
		"coord": {
			"lon": -90.313721,
			"lat": 38.764771
		}
	},
	{
		"id": 4379625,
		"name": "Camden County",
		"state": "MO",
		"country": "US",
		"coord": {
			"lon": -92.766853,
			"lat": 38.033371
		}
	},
	{
		"id": 4379634,
		"name": "Camdenton",
		"state": "MO",
		"country": "US",
		"coord": {
			"lon": -92.744629,
			"lat": 38.008091
		}
	},
	{
		"id": 4379641,
		"name": "Camden Point",
		"state": "MO",
		"country": "US",
		"coord": {
			"lon": -94.741631,
			"lat": 39.452782
		}
	},
	{
		"id": 4379644,
		"name": "Cameron",
		"state": "MO",
		"country": "US",
		"coord": {
			"lon": -94.241058,
			"lat": 39.74028
		}
	},
	{
		"id": 4379782,
		"name": "Camp Wyman",
		"state": "MO",
		"country": "US",
		"coord": {
			"lon": -90.668182,
			"lat": 38.523941
		}
	},
	{
		"id": 4379785,
		"name": "Campbell",
		"state": "MO",
		"country": "US",
		"coord": {
			"lon": -90.075089,
			"lat": 36.493389
		}
	},
	{
		"id": 4379966,
		"name": "Cape Girardeau",
		"state": "MO",
		"country": "US",
		"coord": {
			"lon": -89.51815,
			"lat": 37.305882
		}
	},
	{
		"id": 4379968,
		"name": "Cape Girardeau County",
		"state": "MO",
		"country": "US",
		"coord": {
			"lon": -89.716759,
			"lat": 37.383381
		}
	},
	{
		"id": 4380043,
		"name": "Carl Junction",
		"state": "MO",
		"country": "US",
		"coord": {
			"lon": -94.565514,
			"lat": 37.17672
		}
	},
	{
		"id": 4380138,
		"name": "Carroll County",
		"state": "MO",
		"country": "US",
		"coord": {
			"lon": -93.516876,
			"lat": 39.45002
		}
	},
	{
		"id": 4380145,
		"name": "Carrollton",
		"state": "MO",
		"country": "US",
		"coord": {
			"lon": -93.495773,
			"lat": 39.358349
		}
	},
	{
		"id": 4380170,
		"name": "Carter County",
		"state": "MO",
		"country": "US",
		"coord": {
			"lon": -90.933456,
			"lat": 36.95005
		}
	},
	{
		"id": 4380199,
		"name": "Carterville",
		"state": "MO",
		"country": "US",
		"coord": {
			"lon": -94.443001,
			"lat": 37.149231
		}
	},
	{
		"id": 4380202,
		"name": "Carthage",
		"state": "MO",
		"country": "US",
		"coord": {
			"lon": -94.310219,
			"lat": 37.176449
		}
	},
	{
		"id": 4380211,
		"name": "Caruthersville",
		"state": "MO",
		"country": "US",
		"coord": {
			"lon": -89.65564,
			"lat": 36.193119
		}
	},
	{
		"id": 4380266,
		"name": "Cass County",
		"state": "MO",
		"country": "US",
		"coord": {
			"lon": -94.36689,
			"lat": 38.650009
		}
	},
	{
		"id": 4380284,
		"name": "Cassville",
		"state": "MO",
		"country": "US",
		"coord": {
			"lon": -93.868813,
			"lat": 36.67701
		}
	},
	{
		"id": 4380287,
		"name": "Castle Point",
		"state": "MO",
		"country": "US",
		"coord": {
			"lon": -90.248169,
			"lat": 38.75811
		}
	},
	{
		"id": 4380570,
		"name": "Cedar Hill",
		"state": "MO",
		"country": "US",
		"coord": {
			"lon": -90.641243,
			"lat": 38.35339
		}
	},
	{
		"id": 4380775,
		"name": "Centerville",
		"state": "MO",
		"country": "US",
		"coord": {
			"lon": -90.958458,
			"lat": 37.435051
		}
	},
	{
		"id": 4380848,
		"name": "Centralia",
		"state": "MO",
		"country": "US",
		"coord": {
			"lon": -92.137947,
			"lat": 39.21032
		}
	},
	{
		"id": 4380859,
		"name": "Chaffee",
		"state": "MO",
		"country": "US",
		"coord": {
			"lon": -89.65509,
			"lat": 37.18005
		}
	},
	{
		"id": 4380976,
		"name": "Charlack",
		"state": "MO",
		"country": "US",
		"coord": {
			"lon": -90.343452,
			"lat": 38.702549
		}
	},
	{
		"id": 4380997,
		"name": "Charleston",
		"state": "MO",
		"country": "US",
		"coord": {
			"lon": -89.350632,
			"lat": 36.920891
		}
	},
	{
		"id": 4381072,
		"name": "Chesterfield",
		"state": "MO",
		"country": "US",
		"coord": {
			"lon": -90.577072,
			"lat": 38.663109
		}
	},
	{
		"id": 4381100,
		"name": "Chicopee",
		"state": "MO",
		"country": "US",
		"coord": {
			"lon": -91.005676,
			"lat": 36.98505
		}
	},
	{
		"id": 4381104,
		"name": "Chillicothe",
		"state": "MO",
		"country": "US",
		"coord": {
			"lon": -93.552437,
			"lat": 39.795292
		}
	},
	{
		"id": 4381179,
		"name": "Christian County",
		"state": "MO",
		"country": "US",
		"coord": {
			"lon": -93.183517,
			"lat": 36.966721
		}
	},
	{
		"id": 4381423,
		"name": "Clarkson Valley",
		"state": "MO",
		"country": "US",
		"coord": {
			"lon": -90.589287,
			"lat": 38.618389
		}
	},
	{
		"id": 4381424,
		"name": "Clarksville",
		"state": "MO",
		"country": "US",
		"coord": {
			"lon": -90.905128,
			"lat": 39.370602
		}
	},
	{
		"id": 4381426,
		"name": "Clarkton",
		"state": "MO",
		"country": "US",
		"coord": {
			"lon": -89.967041,
			"lat": 36.451729
		}
	},
	{
		"id": 4381444,
		"name": "Clay County",
		"state": "MO",
		"country": "US",
		"coord": {
			"lon": -94.40023,
			"lat": 39.316669
		}
	},
	{
		"id": 4381469,
		"name": "Claycomo",
		"state": "MO",
		"country": "US",
		"coord": {
			"lon": -94.492447,
			"lat": 39.202499
		}
	},
	{
		"id": 4381478,
		"name": "Clayton",
		"state": "MO",
		"country": "US",
		"coord": {
			"lon": -90.32373,
			"lat": 38.642551
		}
	},
	{
		"id": 4381585,
		"name": "Clever",
		"state": "MO",
		"country": "US",
		"coord": {
			"lon": -93.472969,
			"lat": 37.030331
		}
	},
	{
		"id": 4381643,
		"name": "Clinton",
		"state": "MO",
		"country": "US",
		"coord": {
			"lon": -93.778267,
			"lat": 38.368629
		}
	},
	{
		"id": 4381856,
		"name": "Cole Camp",
		"state": "MO",
		"country": "US",
		"coord": {
			"lon": -93.202698,
			"lat": 38.460018
		}
	},
	{
		"id": 4381866,
		"name": "Cole County",
		"state": "MO",
		"country": "US",
		"coord": {
			"lon": -92.283524,
			"lat": 38.500309
		}
	},
	{
		"id": 4381982,
		"name": "Columbia",
		"state": "MO",
		"country": "US",
		"coord": {
			"lon": -92.334068,
			"lat": 38.95171
		}
	},
	{
		"id": 4382072,
		"name": "Concord",
		"state": "MO",
		"country": "US",
		"coord": {
			"lon": -90.357338,
			"lat": 38.524502
		}
	},
	{
		"id": 4382119,
		"name": "Concordia",
		"state": "MO",
		"country": "US",
		"coord": {
			"lon": -93.56855,
			"lat": 38.983349
		}
	},
	{
		"id": 4382223,
		"name": "Cool Valley",
		"state": "MO",
		"country": "US",
		"coord": {
			"lon": -90.310112,
			"lat": 38.727829
		}
	},
	{
		"id": 4382491,
		"name": "Cottleville",
		"state": "MO",
		"country": "US",
		"coord": {
			"lon": -90.654007,
			"lat": 38.746159
		}
	},
	{
		"id": 4382559,
		"name": "Country Club Hills",
		"state": "MO",
		"country": "US",
		"coord": {
			"lon": -90.274841,
			"lat": 38.720879
		}
	},
	{
		"id": 4382561,
		"name": "Country Club Village",
		"state": "MO",
		"country": "US",
		"coord": {
			"lon": -94.821632,
			"lat": 39.832218
		}
	},
	{
		"id": 4382741,
		"name": "Crane",
		"state": "MO",
		"country": "US",
		"coord": {
			"lon": -93.571579,
			"lat": 36.905338
		}
	},
	{
		"id": 4382833,
		"name": "Crestwood",
		"state": "MO",
		"country": "US",
		"coord": {
			"lon": -90.381783,
			"lat": 38.556999
		}
	},
	{
		"id": 4382837,
		"name": "Creve Coeur",
		"state": "MO",
		"country": "US",
		"coord": {
			"lon": -90.422623,
			"lat": 38.660889
		}
	},
	{
		"id": 4382874,
		"name": "Crocker",
		"state": "MO",
		"country": "US",
		"coord": {
			"lon": -92.263779,
			"lat": 37.948929
		}
	},
	{
		"id": 4383041,
		"name": "Crystal City",
		"state": "MO",
		"country": "US",
		"coord": {
			"lon": -90.379013,
			"lat": 38.221169
		}
	},
	{
		"id": 4383070,
		"name": "Cuba",
		"state": "MO",
		"country": "US",
		"coord": {
			"lon": -91.403481,
			"lat": 38.06282
		}
	},
	{
		"id": 4383306,
		"name": "Dardenne Prairie",
		"state": "MO",
		"country": "US",
		"coord": {
			"lon": -90.729019,
			"lat": 38.769501
		}
	},
	{
		"id": 4383513,
		"name": "De Soto",
		"state": "MO",
		"country": "US",
		"coord": {
			"lon": -90.55513,
			"lat": 38.1395
		}
	},
	{
		"id": 4383713,
		"name": "Dellwood",
		"state": "MO",
		"country": "US",
		"coord": {
			"lon": -90.285667,
			"lat": 38.7495
		}
	},
	{
		"id": 4383778,
		"name": "Des Peres",
		"state": "MO",
		"country": "US",
		"coord": {
			"lon": -90.432899,
			"lat": 38.600891
		}
	},
	{
		"id": 4383785,
		"name": "Desloge",
		"state": "MO",
		"country": "US",
		"coord": {
			"lon": -90.527351,
			"lat": 37.87088
		}
	},
	{
		"id": 4383857,
		"name": "Dexter",
		"state": "MO",
		"country": "US",
		"coord": {
			"lon": -89.95787,
			"lat": 36.795891
		}
	},
	{
		"id": 4384134,
		"name": "Dixon",
		"state": "MO",
		"country": "US",
		"coord": {
			"lon": -92.093781,
			"lat": 37.991711
		}
	},
	{
		"id": 4384264,
		"name": "Doniphan",
		"state": "MO",
		"country": "US",
		"coord": {
			"lon": -90.823463,
			"lat": 36.620892
		}
	},
	{
		"id": 4384695,
		"name": "Duenweg",
		"state": "MO",
		"country": "US",
		"coord": {
			"lon": -94.413559,
			"lat": 37.083672
		}
	},
	{
		"id": 4384778,
		"name": "Dunklin County",
		"state": "MO",
		"country": "US",
		"coord": {
			"lon": -90.033432,
			"lat": 36.283401
		}
	},
	{
		"id": 4384809,
		"name": "Duquesne",
		"state": "MO",
		"country": "US",
		"coord": {
			"lon": -94.459389,
			"lat": 37.076729
		}
	},
	{
		"id": 4385018,
		"name": "East Independence",
		"state": "MO",
		"country": "US",
		"coord": {
			"lon": -94.355232,
			"lat": 39.095558
		}
	},
	{
		"id": 4385054,
		"name": "East Prairie",
		"state": "MO",
		"country": "US",
		"coord": {
			"lon": -89.385628,
			"lat": 36.779781
		}
	},
	{
		"id": 4385317,
		"name": "El Dorado Springs",
		"state": "MO",
		"country": "US",
		"coord": {
			"lon": -94.021332,
			"lat": 37.87698
		}
	},
	{
		"id": 4385339,
		"name": "Eldon",
		"state": "MO",
		"country": "US",
		"coord": {
			"lon": -92.581581,
			"lat": 38.348358
		}
	},
	{
		"id": 4385494,
		"name": "Ellisville",
		"state": "MO",
		"country": "US",
		"coord": {
			"lon": -90.587067,
			"lat": 38.592548
		}
	},
	{
		"id": 4385591,
		"name": "Elmwood (historical)",
		"state": "MO",
		"country": "US",
		"coord": {
			"lon": -89.581482,
			"lat": 37.252831
		}
	},
	{
		"id": 4385603,
		"name": "Elsberry",
		"state": "MO",
		"country": "US",
		"coord": {
			"lon": -90.78096,
			"lat": 39.166721
		}
	},
	{
		"id": 4385616,
		"name": "Elvins",
		"state": "MO",
		"country": "US",
		"coord": {
			"lon": -90.532898,
			"lat": 37.83672
		}
	},
	{
		"id": 4385654,
		"name": "Eminence",
		"state": "MO",
		"country": "US",
		"coord": {
			"lon": -91.357643,
			"lat": 37.1506
		}
	},
	{
		"id": 4385798,
		"name": "Esther",
		"state": "MO",
		"country": "US",
		"coord": {
			"lon": -90.498741,
			"lat": 37.85033
		}
	},
	{
		"id": 4385835,
		"name": "Eureka",
		"state": "MO",
		"country": "US",
		"coord": {
			"lon": -90.627899,
			"lat": 38.502548
		}
	},
	{
		"id": 4385966,
		"name": "Excelsior Springs",
		"state": "MO",
		"country": "US",
		"coord": {
			"lon": -94.226059,
			"lat": 39.339169
		}
	},
	{
		"id": 4386009,
		"name": "Fair Grove",
		"state": "MO",
		"country": "US",
		"coord": {
			"lon": -93.151299,
			"lat": 37.38393
		}
	},
	{
		"id": 4386289,
		"name": "Farmington",
		"state": "MO",
		"country": "US",
		"coord": {
			"lon": -90.421791,
			"lat": 37.78088
		}
	},
	{
		"id": 4386332,
		"name": "Fayette",
		"state": "MO",
		"country": "US",
		"coord": {
			"lon": -92.683792,
			"lat": 39.14587
		}
	},
	{
		"id": 4386381,
		"name": "Fenton",
		"state": "MO",
		"country": "US",
		"coord": {
			"lon": -90.435951,
			"lat": 38.513111
		}
	},
	{
		"id": 4386387,
		"name": "Ferguson",
		"state": "MO",
		"country": "US",
		"coord": {
			"lon": -90.305389,
			"lat": 38.744221
		}
	},
	{
		"id": 4386419,
		"name": "Festus",
		"state": "MO",
		"country": "US",
		"coord": {
			"lon": -90.39595,
			"lat": 38.220612
		}
	},
	{
		"id": 4386685,
		"name": "Flat River",
		"state": "MO",
		"country": "US",
		"coord": {
			"lon": -90.516792,
			"lat": 37.850052
		}
	},
	{
		"id": 4386802,
		"name": "Florissant",
		"state": "MO",
		"country": "US",
		"coord": {
			"lon": -90.322609,
			"lat": 38.789219
		}
	},
	{
		"id": 4386981,
		"name": "Forsyth",
		"state": "MO",
		"country": "US",
		"coord": {
			"lon": -93.119904,
			"lat": 36.685059
		}
	},
	{
		"id": 4387060,
		"name": "Four Seasons",
		"state": "MO",
		"country": "US",
		"coord": {
			"lon": -92.711021,
			"lat": 38.19809
		}
	},
	{
		"id": 4387240,
		"name": "Fredericktown",
		"state": "MO",
		"country": "US",
		"coord": {
			"lon": -90.294006,
			"lat": 37.55978
		}
	},
	{
		"id": 4387435,
		"name": "Frontenac",
		"state": "MO",
		"country": "US",
		"coord": {
			"lon": -90.415123,
			"lat": 38.635609
		}
	},
	{
		"id": 4387496,
		"name": "Fulton",
		"state": "MO",
		"country": "US",
		"coord": {
			"lon": -91.94796,
			"lat": 38.84671
		}
	},
	{
		"id": 4387545,
		"name": "Gainesville",
		"state": "MO",
		"country": "US",
		"coord": {
			"lon": -92.428223,
			"lat": 36.603119
		}
	},
	{
		"id": 4387557,
		"name": "Galena",
		"state": "MO",
		"country": "US",
		"coord": {
			"lon": -93.466583,
			"lat": 36.80534
		}
	},
	{
		"id": 4387569,
		"name": "Gallatin",
		"state": "MO",
		"country": "US",
		"coord": {
			"lon": -93.962173,
			"lat": 39.914452
		}
	},
	{
		"id": 4387605,
		"name": "Garden City",
		"state": "MO",
		"country": "US",
		"coord": {
			"lon": -94.19133,
			"lat": 38.561119
		}
	},
	{
		"id": 4387807,
		"name": "Gerald",
		"state": "MO",
		"country": "US",
		"coord": {
			"lon": -91.330711,
			"lat": 38.399769
		}
	},
	{
		"id": 4387885,
		"name": "Gideon",
		"state": "MO",
		"country": "US",
		"coord": {
			"lon": -89.919258,
			"lat": 36.452011
		}
	},
	{
		"id": 4387990,
		"name": "Gladstone",
		"state": "MO",
		"country": "US",
		"coord": {
			"lon": -94.55468,
			"lat": 39.203892
		}
	},
	{
		"id": 4388005,
		"name": "Glasgow Village",
		"state": "MO",
		"country": "US",
		"coord": {
			"lon": -90.198441,
			"lat": 38.753658
		}
	},
	{
		"id": 4388009,
		"name": "Glasgow",
		"state": "MO",
		"country": "US",
		"coord": {
			"lon": -92.846581,
			"lat": 39.227249
		}
	},
	{
		"id": 4388036,
		"name": "Glendale",
		"state": "MO",
		"country": "US",
		"coord": {
			"lon": -90.37706,
			"lat": 38.59589
		}
	},
	{
		"id": 102908597,
		"name": "Gerton",
		"state": "",
		"country": "US",
		"coord": {
			"lon": -82.348056,
			"lat": 35.479167
		}
	},
	{
		"id": 536203,
		"name": "Saint Petersburg",
		"state": "",
		"country": "RU",
		"coord": {
			"lon": 30.25,
			"lat": 59.916668
		}
	}
]
